% program   : RTKPOST ver.demo5 b34g
% inp file  : C:\Users\Пользователь\Desktop\blr2023\MNSK00BLR_R_20231730000_01D_30S_MO.rnx
% inp file  : C:\Users\Пользователь\Desktop\blr2023\MNKW00BLR_R_20231730000_01D_30S_MO.rnx
% inp file  : C:\Users\Пользователь\Desktop\blr2023\MNKW00BLR_R_20231730000_01D_EN.rnx
% inp file  : C:\Users\Пользователь\Desktop\blr2023\MNKW00BLR_R_20231730000_01D_CN.rnx
% inp file  : C:\Users\Пользователь\Desktop\blr2023\MNKW00BLR_R_20231730000_01D_RN.rnx
% inp file  : C:\Users\Пользователь\Desktop\blr2023\MNKW00BLR_R_20231730000_01D_GN.rnx
% obs start : 2023/06/22 00:00:00.0 GPST (week2267 345600.0s)
% obs end   : 2023/06/22 23:59:30.0 GPST (week2267 431970.0s)
% pos mode  : Static
% freqs     : L1+L2/E5b
% solution  : Combined-Phase Reset
% elev mask : 5.0 deg
% dynamics  : on
% tidecorr  : off
% ionos opt : Broadcast
% tropo opt : Saastamoinen
% ephemeris : Broadcast
% navi sys  : GPS GLONASS Galileo SBAS
% amb res   : Continuous
% amb glo   : Fix and Hold
% val thres : 3.0
% antenna1  :                       ( 0.0000  0.0000  0.0000)
% antenna2  :                       ( 0.0000  0.0000  0.0000)
% ref pos   :  3337518.3177   1742285.6146   5131459.2122
%
% (x/y/z-ecef=WGS84,Q=1:fix,2:float,3:sbas,4:dgps,5:single,6:ppp,ns=# of satellites)
%  GPST              x-ecef(m)      y-ecef(m)      z-ecef(m)   Q  ns   sdx(m)   sdy(m)   sdz(m)  sdxy(m)  sdyz(m)  sdzx(m) age(s)  ratio
2267 345600.000   3337519.6003   1742282.5904   5131459.3809   1  25   0.0002   0.0002   0.0002   0.0001   0.0001   0.0001   0.00  151.0
2267 345630.000   3337519.6003   1742282.5904   5131459.3809   1  26   0.0002   0.0002   0.0002   0.0001   0.0001   0.0001   0.00  147.7
2267 345660.000   3337519.6004   1742282.5904   5131459.3809   1  26   0.0002   0.0002   0.0002   0.0001   0.0001   0.0001   0.00  141.5
2267 345690.000   3337519.6004   1742282.5904   5131459.3809   1  26   0.0002   0.0002   0.0002   0.0001   0.0001   0.0001   0.00  158.7
2267 345720.000   3337519.6003   1742282.5904   5131459.3809   1  26   0.0002   0.0002   0.0002   0.0001   0.0001   0.0001   0.00  191.5
2267 345750.000   3337519.6003   1742282.5904   5131459.3809   1  26   0.0002   0.0002   0.0002   0.0001   0.0001   0.0001   0.00  189.2
2267 345780.000   3337519.6003   1742282.5904   5131459.3809   1  26   0.0002   0.0002   0.0002   0.0001   0.0001   0.0001   0.00  196.1
2267 345810.000   3337519.6003   1742282.5904   5131459.3809   1  26   0.0002   0.0002   0.0002   0.0001   0.0001   0.0001   0.00  187.9
2267 345840.000   3337519.6003   1742282.5904   5131459.3809   1  26   0.0002   0.0002   0.0002   0.0001   0.0001   0.0001   0.00  188.9
2267 345870.000   3337519.6003   1742282.5904   5131459.3809   1  27   0.0002   0.0002   0.0002   0.0001   0.0001   0.0001   0.00  192.2
2267 345900.000   3337519.6003   1742282.5904   5131459.3809   1  27   0.0002   0.0002   0.0002   0.0001   0.0001   0.0001   0.00  210.7
2267 345930.000   3337519.6003   1742282.5905   5131459.3809   1  27   0.0002   0.0002   0.0002   0.0001   0.0001   0.0001   0.00  214.4
2267 345960.000   3337519.6003   1742282.5904   5131459.3809   1  27   0.0002   0.0002   0.0002   0.0001   0.0001   0.0001   0.00  221.7
2267 345990.000   3337519.6003   1742282.5905   5131459.3809   1  27   0.0002   0.0002   0.0002   0.0001   0.0001   0.0001   0.00  225.3
2267 346020.000   3337519.6003   1742282.5905   5131459.3809   1  27   0.0002   0.0002   0.0002   0.0001   0.0001   0.0001   0.00  229.8
2267 346050.000   3337519.6003   1742282.5905   5131459.3809   1  27   0.0002   0.0002   0.0002   0.0001   0.0001   0.0001   0.00  246.5
2267 346080.000   3337519.6003   1742282.5905   5131459.3809   1  27   0.0002   0.0002   0.0002   0.0001   0.0001   0.0001   0.00  262.6
2267 346110.000   3337519.6003   1742282.5905   5131459.3809   1  27   0.0002   0.0002   0.0002   0.0001   0.0001   0.0001   0.00  268.8
2267 346140.000   3337519.6003   1742282.5905   5131459.3809   1  27   0.0002   0.0002   0.0002   0.0001   0.0001   0.0001   0.00  277.2
2267 346170.000   3337519.6003   1742282.5905   5131459.3809   1  27   0.0002   0.0002   0.0002   0.0001   0.0001   0.0001   0.00  285.1
2267 346200.000   3337519.6003   1742282.5905   5131459.3809   1  27   0.0002   0.0002   0.0002   0.0001   0.0001   0.0001   0.00  298.1
2267 346230.000   3337519.6003   1742282.5905   5131459.3809   1  27   0.0002   0.0002   0.0002   0.0001   0.0001   0.0001   0.00  305.7
2267 346260.000   3337519.6003   1742282.5905   5131459.3809   1  27   0.0002   0.0002   0.0002   0.0001   0.0001   0.0001   0.00  315.6
2267 346290.000   3337519.6003   1742282.5905   5131459.3809   1  27   0.0002   0.0002   0.0002   0.0001   0.0001   0.0001   0.00   96.2
2267 346320.000   3337519.6003   1742282.5905   5131459.3809   1  27   0.0002   0.0002   0.0002   0.0001   0.0001   0.0001   0.00  101.1
2267 346350.000   3337519.6003   1742282.5905   5131459.3809   1  27   0.0002   0.0002   0.0002   0.0001   0.0001   0.0001   0.00  103.8
2267 346380.000   3337519.6003   1742282.5905   5131459.3809   1  27   0.0002   0.0002   0.0002   0.0001   0.0001   0.0001   0.00  107.1
2267 346410.000   3337519.6003   1742282.5905   5131459.3809   1  27   0.0002   0.0002   0.0002   0.0001   0.0001   0.0001   0.00  127.0
2267 346440.000   3337519.6003   1742282.5905   5131459.3809   1  27   0.0002   0.0002   0.0002   0.0001   0.0001   0.0001   0.00  138.4
2267 346470.000   3337519.6003   1742282.5905   5131459.3809   1  27   0.0002   0.0002   0.0002   0.0001   0.0001   0.0001   0.00  144.9
2267 346500.000   3337519.6003   1742282.5905   5131459.3809   1  27   0.0002   0.0002   0.0002   0.0001   0.0001   0.0001   0.00  150.8
2267 346530.000   3337519.6003   1742282.5905   5131459.3809   1  27   0.0002   0.0002   0.0002   0.0001   0.0001   0.0001   0.00  157.1
2267 346560.000   3337519.6003   1742282.5905   5131459.3809   1  27   0.0002   0.0002   0.0002   0.0001   0.0001   0.0001   0.00  162.5
2267 346590.000   3337519.6003   1742282.5905   5131459.3809   1  27   0.0002   0.0002   0.0002   0.0001   0.0001   0.0001   0.00  167.0
2267 346620.000   3337519.6003   1742282.5905   5131459.3809   1  27   0.0002   0.0002   0.0002   0.0001   0.0001   0.0001   0.00  174.6
2267 346650.000   3337519.6003   1742282.5905   5131459.3809   1  27   0.0002   0.0002   0.0002   0.0001   0.0001   0.0001   0.00  182.2
2267 346680.000   3337519.6003   1742282.5905   5131459.3809   1  27   0.0002   0.0002   0.0002   0.0001   0.0001   0.0001   0.00  184.6
2267 346710.000   3337519.6003   1742282.5905   5131459.3809   1  27   0.0002   0.0002   0.0002   0.0001   0.0001   0.0001   0.00  187.6
2267 346740.000   3337519.6003   1742282.5905   5131459.3809   1  27   0.0002   0.0002   0.0002   0.0001   0.0001   0.0001   0.00  187.7
2267 346770.000   3337519.6003   1742282.5905   5131459.3809   1  27   0.0002   0.0002   0.0002   0.0001   0.0001   0.0001   0.00  186.2
2267 346800.000   3337519.6003   1742282.5905   5131459.3809   1  27   0.0002   0.0002   0.0002   0.0001   0.0001   0.0001   0.00  184.3
2267 346830.000   3337519.6003   1742282.5905   5131459.3809   1  27   0.0002   0.0002   0.0002   0.0001   0.0001   0.0001   0.00  181.2
2267 346860.000   3337519.6003   1742282.5905   5131459.3809   1  27   0.0002   0.0002   0.0002   0.0001   0.0001   0.0001   0.00  180.1
2267 346890.000   3337519.6003   1742282.5905   5131459.3808   1  27   0.0002   0.0002   0.0002   0.0001   0.0001   0.0001   0.00  185.6
2267 346920.000   3337519.6003   1742282.5905   5131459.3808   1  27   0.0002   0.0002   0.0002   0.0001   0.0001   0.0001   0.00  186.3
2267 346950.000   3337519.6003   1742282.5905   5131459.3808   1  28   0.0002   0.0002   0.0002   0.0001   0.0001   0.0001   0.00  191.4
2267 346980.000   3337519.6003   1742282.5905   5131459.3808   1  28   0.0002   0.0002   0.0002   0.0001   0.0001   0.0001   0.00  192.0
2267 347010.000   3337519.6003   1742282.5905   5131459.3808   1  28   0.0002   0.0002   0.0002   0.0001   0.0001   0.0001   0.00  190.4
2267 347040.000   3337519.6003   1742282.5905   5131459.3808   1  28   0.0002   0.0002   0.0002   0.0001   0.0001   0.0001   0.00  186.2
2267 347070.000   3337519.6003   1742282.5905   5131459.3808   1  28   0.0002   0.0002   0.0002   0.0001   0.0001   0.0001   0.00  185.6
2267 347100.000   3337519.6003   1742282.5905   5131459.3808   1  29   0.0002   0.0002   0.0002   0.0001   0.0001   0.0001   0.00  183.0
2267 347130.000   3337519.6003   1742282.5905   5131459.3808   1  29   0.0002   0.0002   0.0002   0.0001   0.0001   0.0001   0.00  181.0
2267 347160.000   3337519.6003   1742282.5905   5131459.3808   1  29   0.0002   0.0002   0.0002   0.0001   0.0001   0.0001   0.00  180.4
2267 347190.000   3337519.6003   1742282.5905   5131459.3808   1  29   0.0002   0.0002   0.0002   0.0001   0.0001   0.0001   0.00  179.4
2267 347220.000   3337519.6003   1742282.5905   5131459.3808   1  29   0.0002   0.0002   0.0002   0.0001   0.0001   0.0001   0.00  179.2
2267 347250.000   3337519.6003   1742282.5905   5131459.3808   1  29   0.0002   0.0002   0.0002   0.0001   0.0001   0.0001   0.00  179.5
2267 347280.000   3337519.6003   1742282.5905   5131459.3808   1  30   0.0002   0.0002   0.0002   0.0001   0.0001   0.0001   0.00  179.9
2267 347310.000   3337519.6003   1742282.5905   5131459.3808   1  30   0.0002   0.0002   0.0002   0.0001   0.0001   0.0001   0.00  181.7
2267 347340.000   3337519.6003   1742282.5905   5131459.3808   1  30   0.0002   0.0002   0.0002   0.0001   0.0001   0.0001   0.00  209.2
2267 347370.000   3337519.6003   1742282.5905   5131459.3808   1  30   0.0002   0.0002   0.0002   0.0001   0.0001   0.0001   0.00  212.6
2267 347400.000   3337519.6003   1742282.5905   5131459.3808   1  30   0.0002   0.0002   0.0002   0.0001   0.0001   0.0001   0.00  215.0
2267 347430.000   3337519.6003   1742282.5905   5131459.3808   1  30   0.0002   0.0002   0.0002   0.0001   0.0001   0.0001   0.00  217.8
2267 347460.000   3337519.6003   1742282.5905   5131459.3808   1  30   0.0002   0.0002   0.0002   0.0001   0.0001   0.0001   0.00  220.2
2267 347490.000   3337519.6003   1742282.5905   5131459.3808   1  30   0.0002   0.0002   0.0002   0.0001   0.0001   0.0001   0.00  223.7
2267 347520.000   3337519.6003   1742282.5905   5131459.3808   1  30   0.0002   0.0002   0.0002   0.0001   0.0001   0.0001   0.00  229.9
2267 347550.000   3337519.6003   1742282.5905   5131459.3808   1  30   0.0002   0.0002   0.0002   0.0001   0.0001   0.0001   0.00  234.8
2267 347580.000   3337519.6002   1742282.5905   5131459.3808   1  30   0.0002   0.0002   0.0002   0.0001   0.0001   0.0001   0.00  227.8
2267 347610.000   3337519.6002   1742282.5905   5131459.3808   1  29   0.0002   0.0002   0.0002   0.0001   0.0001   0.0001   0.00  233.5
2267 347640.000   3337519.6002   1742282.5905   5131459.3808   1  29   0.0002   0.0002   0.0002   0.0001   0.0001   0.0001   0.00  238.4
2267 347670.000   3337519.6002   1742282.5905   5131459.3808   1  29   0.0002   0.0002   0.0002   0.0001   0.0001   0.0001   0.00  242.6
2267 347700.000   3337519.6002   1742282.5905   5131459.3808   1  30   0.0002   0.0002   0.0002   0.0001   0.0001   0.0001   0.00  242.0
2267 347730.000   3337519.6002   1742282.5905   5131459.3808   1  30   0.0002   0.0002   0.0002   0.0001   0.0001   0.0001   0.00  245.1
2267 347760.000   3337519.6002   1742282.5905   5131459.3808   1  30   0.0002   0.0002   0.0002   0.0001   0.0001   0.0001   0.00  248.8
2267 347790.000   3337519.6002   1742282.5905   5131459.3808   1  30   0.0002   0.0002   0.0002   0.0001   0.0001   0.0001   0.00  253.1
2267 347820.000   3337519.6002   1742282.5905   5131459.3808   1  30   0.0002   0.0002   0.0002   0.0001   0.0001   0.0001   0.00  260.2
2267 347850.000   3337519.6002   1742282.5905   5131459.3808   1  30   0.0002   0.0002   0.0002   0.0001   0.0001   0.0001   0.00  265.8
2267 347880.000   3337519.6002   1742282.5905   5131459.3808   1  30   0.0002   0.0002   0.0002   0.0001   0.0001   0.0001   0.00  274.1
2267 347910.000   3337519.6002   1742282.5905   5131459.3808   1  30   0.0002   0.0002   0.0002   0.0001   0.0001   0.0001   0.00  276.4
2267 347940.000   3337519.6002   1742282.5905   5131459.3808   1  30   0.0002   0.0002   0.0002   0.0001   0.0001   0.0001   0.00  276.5
2267 347970.000   3337519.6002   1742282.5905   5131459.3808   1  30   0.0002   0.0002   0.0002   0.0001   0.0001   0.0001   0.00  277.7
2267 348000.000   3337519.6002   1742282.5905   5131459.3808   1  30   0.0002   0.0002   0.0002   0.0001   0.0001   0.0001   0.00  276.3
2267 348030.000   3337519.6002   1742282.5905   5131459.3808   1  31   0.0002   0.0002   0.0002   0.0001   0.0001   0.0001   0.00  276.5
2267 348060.000   3337519.6002   1742282.5905   5131459.3808   1  31   0.0002   0.0002   0.0002   0.0001   0.0001   0.0001   0.00  277.4
2267 348090.000   3337519.6002   1742282.5905   5131459.3808   1  31   0.0002   0.0002   0.0002   0.0001   0.0001   0.0001   0.00  277.4
2267 348120.000   3337519.6002   1742282.5905   5131459.3808   1  31   0.0002   0.0002   0.0002   0.0001   0.0001   0.0001   0.00  277.4
2267 348150.000   3337519.6002   1742282.5905   5131459.3808   1  31   0.0002   0.0002   0.0002   0.0001   0.0001   0.0001   0.00  281.4
2267 348180.000   3337519.6002   1742282.5905   5131459.3808   1  30   0.0002   0.0002   0.0002   0.0001   0.0001   0.0001   0.00  285.3
2267 348210.000   3337519.6002   1742282.5905   5131459.3808   1  30   0.0002   0.0002   0.0002   0.0001   0.0001   0.0001   0.00  288.5
2267 348240.000   3337519.6002   1742282.5905   5131459.3808   1  30   0.0002   0.0002   0.0002   0.0001   0.0001   0.0001   0.00   54.6
2267 348270.000   3337519.6002   1742282.5905   5131459.3808   1  30   0.0002   0.0002   0.0002   0.0001   0.0001   0.0001   0.00   57.7
2267 348300.000   3337519.6002   1742282.5905   5131459.3808   1  30   0.0002   0.0002   0.0002   0.0001   0.0001   0.0001   0.00   60.9
2267 348330.000   3337519.6002   1742282.5905   5131459.3808   1  30   0.0002   0.0002   0.0002   0.0001   0.0001   0.0001   0.00   64.0
2267 348360.000   3337519.6002   1742282.5905   5131459.3808   1  30   0.0002   0.0002   0.0002   0.0001   0.0001   0.0001   0.00   66.1
2267 348390.000   3337519.6002   1742282.5905   5131459.3808   1  30   0.0002   0.0002   0.0002   0.0001   0.0001   0.0001   0.00   69.2
2267 348420.000   3337519.6002   1742282.5905   5131459.3808   1  30   0.0002   0.0002   0.0002   0.0001   0.0001   0.0001   0.00   72.4
2267 348450.000   3337519.6002   1742282.5905   5131459.3808   1  30   0.0002   0.0002   0.0002   0.0001   0.0001   0.0001   0.00   75.5
2267 348480.000   3337519.6002   1742282.5905   5131459.3808   1  29   0.0002   0.0002   0.0002   0.0001   0.0001   0.0001   0.00   78.9
2267 348510.000   3337519.6002   1742282.5905   5131459.3808   1  29   0.0002   0.0002   0.0002   0.0001   0.0001   0.0001   0.00   82.3
2267 348540.000   3337519.6002   1742282.5905   5131459.3808   1  29   0.0002   0.0002   0.0002   0.0001   0.0001   0.0001   0.00   86.1
2267 348570.000   3337519.6002   1742282.5905   5131459.3808   1  29   0.0002   0.0002   0.0002   0.0001   0.0001   0.0001   0.00   90.8
2267 348600.000   3337519.6002   1742282.5905   5131459.3808   1  29   0.0002   0.0002   0.0002   0.0001   0.0001   0.0001   0.00   95.5
2267 348630.000   3337519.6002   1742282.5905   5131459.3808   1  29   0.0002   0.0002   0.0002   0.0001   0.0001   0.0001   0.00   99.3
2267 348660.000   3337519.6002   1742282.5905   5131459.3808   1  29   0.0002   0.0002   0.0002   0.0001   0.0001   0.0001   0.00  103.9
2267 348690.000   3337519.6002   1742282.5905   5131459.3808   1  29   0.0002   0.0002   0.0002   0.0001   0.0001   0.0001   0.00  108.7
2267 348720.000   3337519.6002   1742282.5905   5131459.3808   1  29   0.0002   0.0002   0.0002   0.0001   0.0001   0.0001   0.00  113.9
2267 348750.000   3337519.6002   1742282.5905   5131459.3808   1  29   0.0002   0.0002   0.0002   0.0001   0.0001   0.0001   0.00  118.3
2267 348780.000   3337519.6002   1742282.5905   5131459.3808   1  29   0.0002   0.0002   0.0002   0.0001   0.0001   0.0001   0.00  120.8
2267 348810.000   3337519.6002   1742282.5905   5131459.3808   1  29   0.0002   0.0002   0.0002   0.0001   0.0001   0.0001   0.00  125.3
2267 348840.000   3337519.6002   1742282.5905   5131459.3808   1  29   0.0002   0.0002   0.0002   0.0001   0.0001   0.0001   0.00  140.0
2267 348870.000   3337519.6002   1742282.5904   5131459.3808   1  29   0.0002   0.0002   0.0002   0.0001   0.0001   0.0001   0.00  143.2
2267 348900.000   3337519.6002   1742282.5904   5131459.3808   1  29   0.0002   0.0002   0.0002   0.0001   0.0001   0.0001   0.00  149.0
2267 348930.000   3337519.6002   1742282.5904   5131459.3808   1  29   0.0002   0.0002   0.0002   0.0001   0.0001   0.0001   0.00  153.0
2267 348960.000   3337519.6002   1742282.5904   5131459.3808   1  29   0.0002   0.0002   0.0002   0.0001   0.0001   0.0001   0.00  157.9
2267 348990.000   3337519.6002   1742282.5904   5131459.3808   1  28   0.0002   0.0002   0.0002   0.0001   0.0001   0.0001   0.00  162.4
2267 349020.000   3337519.6002   1742282.5905   5131459.3808   1  28   0.0002   0.0002   0.0002   0.0001   0.0001   0.0001   0.00  166.2
2267 349050.000   3337519.6002   1742282.5905   5131459.3808   1  28   0.0002   0.0002   0.0002   0.0001   0.0001   0.0001   0.00  171.0
2267 349080.000   3337519.6001   1742282.5904   5131459.3808   1  28   0.0002   0.0002   0.0002   0.0001   0.0001   0.0001   0.00  172.1
2267 349110.000   3337519.6001   1742282.5904   5131459.3808   1  28   0.0002   0.0002   0.0002   0.0001   0.0001   0.0001   0.00  176.7
2267 349140.000   3337519.6001   1742282.5904   5131459.3808   1  28   0.0002   0.0002   0.0002   0.0001   0.0001   0.0001   0.00  179.8
2267 349170.000   3337519.6002   1742282.5905   5131459.3808   1  28   0.0002   0.0002   0.0002   0.0001   0.0001   0.0001   0.00   66.3
2267 349200.000   3337519.6001   1742282.5905   5131459.3808   1  28   0.0002   0.0002   0.0002   0.0001   0.0001   0.0001   0.00   69.1
2267 349230.000   3337519.6001   1742282.5905   5131459.3808   1  28   0.0002   0.0002   0.0002   0.0001   0.0001   0.0001   0.00   72.3
2267 349260.000   3337519.6001   1742282.5905   5131459.3808   1  28   0.0002   0.0002   0.0002   0.0001   0.0001   0.0001   0.00   75.4
2267 349290.000   3337519.6001   1742282.5905   5131459.3808   1  28   0.0002   0.0002   0.0002   0.0001   0.0001   0.0001   0.00   79.2
2267 349320.000   3337519.6001   1742282.5905   5131459.3808   1  28   0.0002   0.0002   0.0002   0.0001   0.0001   0.0001   0.00   82.7
2267 349350.000   3337519.6001   1742282.5905   5131459.3808   1  28   0.0002   0.0002   0.0002   0.0001   0.0001   0.0001   0.00   85.8
2267 349380.000   3337519.6001   1742282.5905   5131459.3808   1  28   0.0002   0.0002   0.0002   0.0001   0.0001   0.0001   0.00   89.4
2267 349410.000   3337519.6002   1742282.5905   5131459.3808   1  28   0.0002   0.0002   0.0002   0.0001   0.0001   0.0001   0.00   92.7
2267 349440.000   3337519.6001   1742282.5905   5131459.3808   1  28   0.0002   0.0002   0.0002   0.0001   0.0001   0.0001   0.00   96.8
2267 349470.000   3337519.6001   1742282.5905   5131459.3808   1  28   0.0002   0.0002   0.0002   0.0001   0.0001   0.0001   0.00  101.9
2267 349500.000   3337519.6001   1742282.5905   5131459.3808   1  28   0.0002   0.0002   0.0002   0.0001   0.0001   0.0001   0.00  105.6
2267 349530.000   3337519.6001   1742282.5905   5131459.3808   1  28   0.0002   0.0002   0.0002   0.0001   0.0001   0.0001   0.00  110.7
2267 349560.000   3337519.6002   1742282.5904   5131459.3808   1  27   0.0002   0.0002   0.0002   0.0001   0.0001   0.0001   0.00  115.8
2267 349590.000   3337519.6002   1742282.5904   5131459.3808   1  27   0.0002   0.0002   0.0002   0.0001   0.0001   0.0001   0.00  118.5
2267 349620.000   3337519.6002   1742282.5904   5131459.3808   1  26   0.0002   0.0002   0.0002   0.0001   0.0001   0.0001   0.00  120.9
2267 349650.000   3337519.6002   1742282.5905   5131459.3808   1  27   0.0002   0.0002   0.0002   0.0001   0.0001   0.0001   0.00  123.6
2267 349680.000   3337519.6002   1742282.5905   5131459.3808   1  27   0.0002   0.0002   0.0002   0.0001   0.0001   0.0001   0.00  126.5
2267 349710.000   3337519.6002   1742282.5905   5131459.3808   1  27   0.0002   0.0002   0.0002   0.0001   0.0001   0.0001   0.00  131.3
2267 349740.000   3337519.6002   1742282.5905   5131459.3808   1  27   0.0002   0.0002   0.0002   0.0001   0.0001   0.0001   0.00  134.9
2267 349770.000   3337519.6002   1742282.5905   5131459.3808   1  27   0.0002   0.0002   0.0002   0.0001   0.0001   0.0001   0.00  133.9
2267 349800.000   3337519.6002   1742282.5905   5131459.3808   1  27   0.0002   0.0002   0.0002   0.0001   0.0001   0.0001   0.00  138.5
2267 349830.000   3337519.6002   1742282.5905   5131459.3808   1  27   0.0002   0.0002   0.0002   0.0001   0.0001   0.0001   0.00  143.1
2267 349860.000   3337519.6002   1742282.5905   5131459.3808   1  27   0.0002   0.0002   0.0002   0.0001   0.0001   0.0001   0.00  148.4
2267 349890.000   3337519.6002   1742282.5905   5131459.3808   1  27   0.0002   0.0002   0.0002   0.0001   0.0001   0.0001   0.00  154.6
2267 349920.000   3337519.6002   1742282.5905   5131459.3808   1  27   0.0002   0.0002   0.0002   0.0001   0.0001   0.0001   0.00  160.0
2267 349950.000   3337519.6002   1742282.5905   5131459.3808   1  27   0.0002   0.0002   0.0002   0.0001   0.0001   0.0001   0.00  165.9
2267 349980.000   3337519.6002   1742282.5905   5131459.3808   1  27   0.0002   0.0002   0.0002   0.0001   0.0001   0.0001   0.00  172.7
2267 350010.000   3337519.6002   1742282.5905   5131459.3808   1  26   0.0002   0.0002   0.0002   0.0001   0.0001   0.0001   0.00  179.5
2267 350040.000   3337519.6002   1742282.5905   5131459.3808   1  26   0.0002   0.0002   0.0002   0.0001   0.0001   0.0001   0.00  187.6
2267 350070.000   3337519.6002   1742282.5905   5131459.3808   1  26   0.0002   0.0002   0.0002   0.0001   0.0001   0.0001   0.00  195.2
2267 350100.000   3337519.6002   1742282.5905   5131459.3808   1  26   0.0002   0.0002   0.0002   0.0001   0.0001   0.0001   0.00  204.7
2267 350130.000   3337519.6002   1742282.5905   5131459.3808   1  26   0.0002   0.0002   0.0002   0.0001   0.0001   0.0001   0.00  212.3
2267 350160.000   3337519.6002   1742282.5905   5131459.3808   1  26   0.0002   0.0002   0.0002   0.0001   0.0001   0.0001   0.00  218.1
2267 350190.000   3337519.6002   1742282.5905   5131459.3808   1  26   0.0002   0.0002   0.0002   0.0001   0.0001   0.0001   0.00  225.4
2267 350220.000   3337519.6002   1742282.5905   5131459.3808   1  26   0.0002   0.0002   0.0002   0.0001   0.0001   0.0001   0.00  231.3
2267 350250.000   3337519.6002   1742282.5905   5131459.3808   1  26   0.0002   0.0002   0.0002   0.0001   0.0001   0.0001   0.00  235.8
2267 350280.000   3337519.6002   1742282.5905   5131459.3808   1  26   0.0002   0.0002   0.0002   0.0001   0.0001   0.0001   0.00  239.7
2267 350310.000   3337519.6002   1742282.5905   5131459.3808   1  26   0.0002   0.0002   0.0002   0.0001   0.0001   0.0001   0.00  246.1
2267 350340.000   3337519.6002   1742282.5905   5131459.3808   1  26   0.0002   0.0002   0.0002   0.0001   0.0001   0.0001   0.00  252.5
2267 350370.000   3337519.6002   1742282.5905   5131459.3808   1  26   0.0002   0.0002   0.0002   0.0001   0.0001   0.0001   0.00  260.5
2267 350400.000   3337519.6002   1742282.5905   5131459.3808   1  26   0.0002   0.0002   0.0002   0.0001   0.0001   0.0001   0.00  264.9
2267 350430.000   3337519.6002   1742282.5905   5131459.3808   1  26   0.0002   0.0002   0.0002   0.0001   0.0001   0.0001   0.00  267.9
2267 350460.000   3337519.6002   1742282.5905   5131459.3808   1  26   0.0002   0.0002   0.0002   0.0001   0.0001   0.0001   0.00  270.3
2267 350490.000   3337519.6002   1742282.5905   5131459.3808   1  26   0.0002   0.0002   0.0002   0.0001   0.0001   0.0001   0.00  272.8
2267 350520.000   3337519.6002   1742282.5905   5131459.3808   1  26   0.0002   0.0002   0.0002   0.0001   0.0001   0.0001   0.00  279.9
2267 350550.000   3337519.6002   1742282.5905   5131459.3808   1  26   0.0002   0.0002   0.0002   0.0001   0.0001   0.0001   0.00  286.0
2267 350580.000   3337519.6002   1742282.5905   5131459.3808   1  26   0.0002   0.0002   0.0002   0.0001   0.0001   0.0001   0.00  289.0
2267 350610.000   3337519.6002   1742282.5905   5131459.3808   1  26   0.0002   0.0002   0.0002   0.0001   0.0001   0.0001   0.00  294.5
2267 350640.000   3337519.6002   1742282.5905   5131459.3808   1  26   0.0002   0.0002   0.0002   0.0001   0.0001   0.0001   0.00  299.9
2267 350670.000   3337519.6002   1742282.5905   5131459.3808   1  26   0.0002   0.0002   0.0002   0.0001   0.0001   0.0001   0.00  306.8
2267 350700.000   3337519.6002   1742282.5905   5131459.3808   1  26   0.0002   0.0002   0.0002   0.0001   0.0001   0.0001   0.00  312.8
2267 350730.000   3337519.6002   1742282.5905   5131459.3808   1  27   0.0002   0.0002   0.0002   0.0001   0.0001   0.0001   0.00  315.2
2267 350760.000   3337519.6002   1742282.5905   5131459.3808   1  27   0.0002   0.0002   0.0002   0.0001   0.0001   0.0001   0.00  316.2
2267 350790.000   3337519.6002   1742282.5905   5131459.3808   1  27   0.0002   0.0002   0.0002   0.0001   0.0001   0.0001   0.00  323.5
2267 350820.000   3337519.6002   1742282.5905   5131459.3808   1  27   0.0002   0.0002   0.0002   0.0001   0.0001   0.0001   0.00  325.5
2267 350850.000   3337519.6002   1742282.5905   5131459.3808   1  27   0.0002   0.0002   0.0002   0.0001   0.0001   0.0001   0.00  327.2
2267 350880.000   3337519.6002   1742282.5905   5131459.3808   1  27   0.0002   0.0002   0.0002   0.0001   0.0001   0.0001   0.00  329.6
2267 350910.000   3337519.6002   1742282.5905   5131459.3808   1  27   0.0002   0.0002   0.0002   0.0001   0.0001   0.0001   0.00  337.4
2267 350940.000   3337519.6002   1742282.5905   5131459.3808   1  27   0.0002   0.0002   0.0002   0.0001   0.0001   0.0001   0.00  339.3
2267 350970.000   3337519.6002   1742282.5905   5131459.3808   1  27   0.0002   0.0002   0.0002   0.0001   0.0001   0.0001   0.00  339.3
2267 351000.000   3337519.6002   1742282.5905   5131459.3808   1  27   0.0002   0.0002   0.0002   0.0001   0.0001   0.0001   0.00  341.7
2267 351030.000   3337519.6002   1742282.5905   5131459.3808   1  27   0.0002   0.0002   0.0002   0.0001   0.0001   0.0001   0.00  346.7
2267 351060.000   3337519.6002   1742282.5905   5131459.3808   1  27   0.0002   0.0002   0.0002   0.0001   0.0001   0.0001   0.00  356.8
2267 351090.000   3337519.6002   1742282.5905   5131459.3808   1  27   0.0002   0.0002   0.0002   0.0001   0.0001   0.0001   0.00  362.0
2267 351120.000   3337519.6002   1742282.5905   5131459.3808   1  26   0.0002   0.0002   0.0002   0.0001   0.0001   0.0001   0.00  374.9
2267 351150.000   3337519.6002   1742282.5905   5131459.3808   1  27   0.0002   0.0002   0.0002   0.0001   0.0001   0.0001   0.00  383.7
2267 351180.000   3337519.6002   1742282.5905   5131459.3808   1  27   0.0002   0.0002   0.0002   0.0001   0.0001   0.0001   0.00  396.4
2267 351210.000   3337519.6002   1742282.5905   5131459.3808   1  27   0.0002   0.0002   0.0002   0.0001   0.0001   0.0001   0.00  404.6
2267 351240.000   3337519.6002   1742282.5905   5131459.3808   1  27   0.0002   0.0002   0.0002   0.0001   0.0001   0.0001   0.00  407.4
2267 351270.000   3337519.6002   1742282.5905   5131459.3808   1  27   0.0002   0.0002   0.0002   0.0001   0.0001   0.0001   0.00  410.4
2267 351300.000   3337519.6002   1742282.5905   5131459.3808   1  27   0.0002   0.0002   0.0002   0.0001   0.0001   0.0001   0.00  414.7
2267 351330.000   3337519.6002   1742282.5905   5131459.3808   1  26   0.0002   0.0002   0.0002   0.0001   0.0001   0.0001   0.00  415.7
2267 351360.000   3337519.6002   1742282.5905   5131459.3808   1  26   0.0002   0.0002   0.0002   0.0001   0.0001   0.0001   0.00  423.4
2267 351390.000   3337519.6002   1742282.5905   5131459.3808   1  25   0.0002   0.0002   0.0002   0.0001   0.0001   0.0001   0.00  431.4
2267 351420.000   3337519.6002   1742282.5905   5131459.3808   1  26   0.0002   0.0002   0.0002   0.0001   0.0001   0.0001   0.00  473.1
2267 351450.000   3337519.6002   1742282.5905   5131459.3808   1  26   0.0002   0.0002   0.0002   0.0001   0.0001   0.0001   0.00  486.7
2267 351480.000   3337519.6002   1742282.5905   5131459.3808   1  26   0.0002   0.0002   0.0002   0.0001   0.0001   0.0001   0.00  500.5
2267 351510.000   3337519.6002   1742282.5905   5131459.3808   1  26   0.0002   0.0002   0.0002   0.0001   0.0001   0.0001   0.00  503.5
2267 351540.000   3337519.6002   1742282.5905   5131459.3808   1  26   0.0002   0.0002   0.0002   0.0001   0.0001   0.0001   0.00  506.5
2267 351570.000   3337519.6002   1742282.5905   5131459.3808   1  25   0.0002   0.0002   0.0002   0.0001   0.0001   0.0001   0.00  512.1
2267 351600.000   3337519.6002   1742282.5905   5131459.3808   1  25   0.0002   0.0002   0.0002   0.0001   0.0001   0.0001   0.00  514.5
2267 351630.000   3337519.6002   1742282.5905   5131459.3808   1  25   0.0002   0.0002   0.0002   0.0001   0.0001   0.0001   0.00  516.9
2267 351660.000   3337519.6002   1742282.5905   5131459.3808   1  25   0.0002   0.0002   0.0002   0.0001   0.0001   0.0001   0.00  521.8
2267 351690.000   3337519.6002   1742282.5905   5131459.3808   1  25   0.0002   0.0002   0.0002   0.0001   0.0001   0.0001   0.00  533.2
2267 351720.000   3337519.6002   1742282.5905   5131459.3808   1  25   0.0002   0.0002   0.0002   0.0001   0.0001   0.0001   0.00  545.6
2267 351750.000   3337519.6002   1742282.5905   5131459.3808   1  25   0.0002   0.0002   0.0002   0.0001   0.0001   0.0001   0.00  555.6
2267 351780.000   3337519.6002   1742282.5905   5131459.3808   1  25   0.0002   0.0002   0.0002   0.0001   0.0001   0.0001   0.00  565.3
2267 351810.000   3337519.6002   1742282.5905   5131459.3808   1  25   0.0002   0.0002   0.0002   0.0001   0.0001   0.0001   0.00  582.9
2267 351840.000   3337519.6002   1742282.5905   5131459.3808   1  25   0.0002   0.0002   0.0002   0.0001   0.0001   0.0001   0.00  592.9
2267 351870.000   3337519.6002   1742282.5905   5131459.3808   1  26   0.0002   0.0002   0.0002   0.0001   0.0001   0.0001   0.00  600.2
2267 351900.000   3337519.6002   1742282.5905   5131459.3808   1  26   0.0002   0.0002   0.0002   0.0001   0.0001   0.0001   0.00  604.6
2267 351930.000   3337519.6002   1742282.5905   5131459.3808   1  26   0.0002   0.0002   0.0002   0.0001   0.0001   0.0001   0.00  616.5
2267 351960.000   3337519.6002   1742282.5905   5131459.3808   1  26   0.0002   0.0002   0.0002   0.0001   0.0001   0.0001   0.00   84.4
2267 351990.000   3337519.6002   1742282.5905   5131459.3808   1  26   0.0002   0.0002   0.0002   0.0001   0.0001   0.0001   0.00   89.6
2267 352020.000   3337519.6002   1742282.5905   5131459.3808   1  26   0.0002   0.0002   0.0002   0.0001   0.0001   0.0001   0.00   96.2
2267 352050.000   3337519.6002   1742282.5905   5131459.3808   1  26   0.0002   0.0002   0.0002   0.0001   0.0001   0.0001   0.00  101.0
2267 352080.000   3337519.6002   1742282.5905   5131459.3808   1  25   0.0002   0.0002   0.0002   0.0001   0.0001   0.0001   0.00  106.9
2267 352110.000   3337519.6002   1742282.5905   5131459.3808   1  25   0.0002   0.0002   0.0002   0.0001   0.0001   0.0001   0.00  111.8
2267 352140.000   3337519.6002   1742282.5905   5131459.3808   1  25   0.0002   0.0002   0.0002   0.0001   0.0001   0.0001   0.00  117.3
2267 352170.000   3337519.6002   1742282.5905   5131459.3808   1  25   0.0002   0.0002   0.0002   0.0001   0.0001   0.0001   0.00  123.5
2267 352200.000   3337519.6002   1742282.5905   5131459.3808   1  25   0.0002   0.0002   0.0002   0.0001   0.0001   0.0001   0.00  129.8
2267 352230.000   3337519.6002   1742282.5905   5131459.3808   1  25   0.0002   0.0002   0.0002   0.0001   0.0001   0.0001   0.00  136.9
2267 352260.000   3337519.6002   1742282.5905   5131459.3808   1  25   0.0002   0.0002   0.0002   0.0001   0.0001   0.0001   0.00  144.6
2267 352290.000   3337519.6002   1742282.5905   5131459.3808   1  25   0.0002   0.0002   0.0002   0.0001   0.0001   0.0001   0.00  150.4
2267 352320.000   3337519.6002   1742282.5905   5131459.3808   1  25   0.0002   0.0002   0.0002   0.0001   0.0001   0.0001   0.00  156.2
2267 352350.000   3337519.6002   1742282.5905   5131459.3808   1  25   0.0002   0.0002   0.0002   0.0001   0.0001   0.0001   0.00  160.1
2267 352380.000   3337519.6002   1742282.5905   5131459.3808   1  25   0.0002   0.0002   0.0002   0.0001   0.0001   0.0001   0.00  166.0
2267 352410.000   3337519.6002   1742282.5905   5131459.3808   1  25   0.0002   0.0002   0.0002   0.0001   0.0001   0.0001   0.00  169.7
2267 352440.000   3337519.6002   1742282.5905   5131459.3808   1  26   0.0002   0.0002   0.0002   0.0001   0.0001   0.0001   0.00  174.4
2267 352470.000   3337519.6002   1742282.5905   5131459.3808   1  26   0.0002   0.0002   0.0002   0.0001   0.0001   0.0001   0.00  178.1
2267 352500.000   3337519.6002   1742282.5905   5131459.3808   1  26   0.0002   0.0002   0.0002   0.0001   0.0001   0.0001   0.00  182.2
2267 352530.000   3337519.6002   1742282.5905   5131459.3808   1  26   0.0002   0.0002   0.0002   0.0001   0.0001   0.0001   0.00  187.3
2267 352560.000   3337519.6002   1742282.5905   5131459.3808   1  26   0.0002   0.0002   0.0002   0.0001   0.0001   0.0001   0.00  193.6
2267 352590.000   3337519.6002   1742282.5905   5131459.3808   1  26   0.0002   0.0002   0.0002   0.0001   0.0001   0.0001   0.00  202.2
2267 352620.000   3337519.6002   1742282.5905   5131459.3808   1  26   0.0002   0.0002   0.0002   0.0001   0.0001   0.0001   0.00  204.8
2267 352650.000   3337519.6002   1742282.5905   5131459.3808   1  25   0.0002   0.0002   0.0002   0.0001   0.0001   0.0001   0.00  210.5
2267 352680.000   3337519.6002   1742282.5905   5131459.3808   1  26   0.0002   0.0002   0.0002   0.0001   0.0001   0.0001   0.00  217.5
2267 352710.000   3337519.6002   1742282.5905   5131459.3808   1  26   0.0002   0.0002   0.0002   0.0001   0.0001   0.0001   0.00  228.8
2267 352740.000   3337519.6002   1742282.5905   5131459.3808   1  26   0.0002   0.0002   0.0002   0.0001   0.0001   0.0001   0.00  239.2
2267 352770.000   3337519.6002   1742282.5905   5131459.3808   1  26   0.0002   0.0002   0.0002   0.0001   0.0001   0.0001   0.00  247.5
2267 352800.000   3337519.6002   1742282.5905   5131459.3808   1  27   0.0002   0.0002   0.0002   0.0001   0.0001   0.0001   0.00  248.8
2267 352830.000   3337519.6002   1742282.5905   5131459.3808   1  26   0.0002   0.0002   0.0002   0.0001   0.0001   0.0001   0.00  258.0
2267 352860.000   3337519.6002   1742282.5905   5131459.3808   1  27   0.0002   0.0002   0.0002   0.0001   0.0001   0.0001   0.00  265.1
2267 352890.000   3337519.6002   1742282.5905   5131459.3808   1  27   0.0002   0.0002   0.0002   0.0001   0.0001   0.0001   0.00  273.6
2267 352920.000   3337519.6002   1742282.5905   5131459.3808   1  27   0.0002   0.0002   0.0002   0.0001   0.0001   0.0001   0.00  280.6
2267 352950.000   3337519.6002   1742282.5905   5131459.3808   1  27   0.0002   0.0002   0.0002   0.0001   0.0001   0.0001   0.00  286.2
2267 352980.000   3337519.6002   1742282.5905   5131459.3808   1  26   0.0002   0.0002   0.0002   0.0001   0.0001   0.0001   0.00  293.7
2267 353010.000   3337519.6002   1742282.5905   5131459.3808   1  26   0.0002   0.0002   0.0002   0.0001   0.0001   0.0001   0.00  304.1
2267 353040.000   3337519.6002   1742282.5905   5131459.3808   1  26   0.0002   0.0002   0.0002   0.0001   0.0001   0.0001   0.00  314.4
2267 353070.000   3337519.6002   1742282.5905   5131459.3808   1  27   0.0002   0.0002   0.0002   0.0001   0.0001   0.0001   0.00    8.0
2267 353100.000   3337519.6002   1742282.5905   5131459.3808   1  26   0.0002   0.0002   0.0002   0.0001   0.0001   0.0001   0.00   15.8
2267 353130.000   3337519.6002   1742282.5905   5131459.3808   1  26   0.0002   0.0002   0.0002   0.0001   0.0001   0.0001   0.00   23.6
2267 353160.000   3337519.6002   1742282.5905   5131459.3808   1  25   0.0002   0.0002   0.0002   0.0001   0.0001   0.0001   0.00   32.6
2267 353190.000   3337519.6002   1742282.5905   5131459.3808   1  25   0.0002   0.0002   0.0002   0.0001   0.0001   0.0001   0.00   41.2
2267 353220.000   3337519.6002   1742282.5905   5131459.3808   1  25   0.0002   0.0002   0.0002   0.0001   0.0001   0.0001   0.00   49.3
2267 353250.000   3337519.6002   1742282.5905   5131459.3808   1  25   0.0002   0.0002   0.0002   0.0001   0.0001   0.0001   0.00   58.8
2267 353280.000   3337519.6002   1742282.5905   5131459.3808   1  25   0.0002   0.0002   0.0002   0.0001   0.0001   0.0001   0.00   70.3
2267 353310.000   3337519.6002   1742282.5905   5131459.3808   1  25   0.0002   0.0002   0.0002   0.0001   0.0001   0.0001   0.00   81.6
2267 353340.000   3337519.6002   1742282.5905   5131459.3808   1  25   0.0002   0.0002   0.0002   0.0001   0.0001   0.0001   0.00   91.4
2267 353370.000   3337519.6002   1742282.5905   5131459.3808   1  25   0.0002   0.0002   0.0002   0.0001   0.0001   0.0001   0.00  102.2
2267 353400.000   3337519.6002   1742282.5905   5131459.3808   1  25   0.0002   0.0002   0.0002   0.0001   0.0001   0.0001   0.00  111.0
2267 353430.000   3337519.6002   1742282.5905   5131459.3808   1  25   0.0002   0.0002   0.0002   0.0001   0.0001   0.0001   0.00  119.5
2267 353460.000   3337519.6002   1742282.5905   5131459.3808   1  25   0.0002   0.0002   0.0002   0.0001   0.0001   0.0001   0.00  128.8
2267 353490.000   3337519.6002   1742282.5905   5131459.3808   1  25   0.0002   0.0002   0.0002   0.0001   0.0001   0.0001   0.00  138.3
2267 353520.000   3337519.6002   1742282.5905   5131459.3808   1  25   0.0002   0.0002   0.0002   0.0001   0.0001   0.0001   0.00  146.8
2267 353550.000   3337519.6002   1742282.5905   5131459.3808   1  25   0.0002   0.0002   0.0002   0.0001   0.0001   0.0001   0.00  156.1
2267 353580.000   3337519.6002   1742282.5905   5131459.3808   1  24   0.0002   0.0002   0.0002   0.0001   0.0001   0.0001   0.00  164.5
2267 353610.000   3337519.6002   1742282.5905   5131459.3808   1  24   0.0002   0.0002   0.0002   0.0001   0.0001   0.0001   0.00  170.6
2267 353640.000   3337519.6002   1742282.5905   5131459.3808   1  24   0.0002   0.0002   0.0002   0.0001   0.0001   0.0001   0.00  180.8
2267 353670.000   3337519.6002   1742282.5905   5131459.3808   1  24   0.0002   0.0002   0.0002   0.0001   0.0001   0.0001   0.00  187.1
2267 353700.000   3337519.6002   1742282.5905   5131459.3808   1  24   0.0002   0.0002   0.0002   0.0001   0.0001   0.0001   0.00  195.0
2267 353730.000   3337519.6002   1742282.5905   5131459.3808   1  24   0.0002   0.0002   0.0002   0.0001   0.0001   0.0001   0.00  205.0
2267 353760.000   3337519.6002   1742282.5905   5131459.3808   1  24   0.0002   0.0002   0.0002   0.0001   0.0001   0.0001   0.00  214.1
2267 353790.000   3337519.6002   1742282.5905   5131459.3808   1  24   0.0002   0.0002   0.0002   0.0001   0.0001   0.0001   0.00  225.5
2267 353820.000   3337519.6002   1742282.5905   5131459.3808   1  24   0.0002   0.0002   0.0002   0.0001   0.0001   0.0001   0.00  233.0
2267 353850.000   3337519.6002   1742282.5905   5131459.3808   1  24   0.0002   0.0002   0.0002   0.0001   0.0001   0.0001   0.00  242.0
2267 353880.000   3337519.6003   1742282.5905   5131459.3809   1  24   0.0002   0.0002   0.0002   0.0001   0.0001   0.0001   0.00  326.3
2267 353910.000   3337519.6003   1742282.5905   5131459.3809   1  24   0.0002   0.0002   0.0002   0.0001   0.0001   0.0001   0.00  330.5
2267 353940.000   3337519.6003   1742282.5905   5131459.3809   1  24   0.0002   0.0002   0.0002   0.0001   0.0001   0.0001   0.00  343.6
2267 353970.000   3337519.6003   1742282.5905   5131459.3809   1  24   0.0002   0.0002   0.0002   0.0001   0.0001   0.0001   0.00  365.0
2267 354000.000   3337519.6003   1742282.5905   5131459.3809   1  24   0.0002   0.0002   0.0002   0.0001   0.0001   0.0001   0.00  378.9
2267 354030.000   3337519.6003   1742282.5905   5131459.3809   1  24   0.0002   0.0002   0.0002   0.0001   0.0001   0.0001   0.00  236.5
2267 354060.000   3337519.6003   1742282.5905   5131459.3809   1  24   0.0002   0.0002   0.0002   0.0001   0.0001   0.0001   0.00  250.3
2267 354090.000   3337519.6003   1742282.5905   5131459.3809   1  24   0.0002   0.0002   0.0002   0.0001   0.0001   0.0001   0.00  261.2
2267 354120.000   3337519.6003   1742282.5905   5131459.3809   1  24   0.0002   0.0002   0.0002   0.0001   0.0001   0.0001   0.00  273.1
2267 354150.000   3337519.6003   1742282.5905   5131459.3809   1  24   0.0002   0.0002   0.0002   0.0001   0.0001   0.0001   0.00  285.2
2267 354180.000   3337519.6003   1742282.5905   5131459.3809   1  24   0.0002   0.0002   0.0002   0.0001   0.0001   0.0001   0.00  297.5
2267 354210.000   3337519.6003   1742282.5905   5131459.3809   1  24   0.0002   0.0002   0.0002   0.0001   0.0001   0.0001   0.00  311.9
2267 354240.000   3337519.6003   1742282.5905   5131459.3809   1  24   0.0002   0.0002   0.0002   0.0001   0.0001   0.0001   0.00  324.0
2267 354270.000   3337519.6003   1742282.5905   5131459.3809   1  24   0.0002   0.0002   0.0002   0.0001   0.0001   0.0001   0.00  327.5
2267 354300.000   3337519.6003   1742282.5905   5131459.3809   1  24   0.0002   0.0002   0.0002   0.0001   0.0001   0.0001   0.00  333.8
2267 354330.000   3337519.6003   1742282.5905   5131459.3809   1  24   0.0002   0.0002   0.0002   0.0001   0.0001   0.0001   0.00  353.3
2267 354360.000   3337519.6003   1742282.5905   5131459.3809   1  24   0.0002   0.0002   0.0002   0.0001   0.0001   0.0001   0.00  367.6
2267 354390.000   3337519.6003   1742282.5905   5131459.3809   1  24   0.0002   0.0002   0.0002   0.0001   0.0001   0.0001   0.00  386.4
2267 354420.000   3337519.6003   1742282.5905   5131459.3809   1  24   0.0002   0.0002   0.0002   0.0001   0.0001   0.0001   0.00  404.7
2267 354450.000   3337519.6003   1742282.5905   5131459.3808   1  24   0.0002   0.0002   0.0002   0.0001   0.0001   0.0001   0.00  417.8
2267 354480.000   3337519.6003   1742282.5905   5131459.3809   1  24   0.0002   0.0002   0.0002   0.0001   0.0001   0.0001   0.00  430.6
2267 354510.000   3337519.6003   1742282.5905   5131459.3809   1  24   0.0002   0.0002   0.0002   0.0001   0.0001   0.0001   0.00  440.2
2267 354540.000   3337519.6003   1742282.5905   5131459.3809   1  24   0.0002   0.0002   0.0002   0.0001   0.0001   0.0001   0.00  439.5
2267 354570.000   3337519.6003   1742282.5905   5131459.3809   1  24   0.0002   0.0002   0.0002   0.0001   0.0001   0.0001   0.00  129.6
2267 354600.000   3337519.6003   1742282.5905   5131459.3809   1  24   0.0002   0.0002   0.0002   0.0001   0.0001   0.0001   0.00  133.1
2267 354630.000   3337519.6003   1742282.5905   5131459.3809   1  24   0.0002   0.0002   0.0002   0.0001   0.0001   0.0001   0.00  135.8
2267 354660.000   3337519.6003   1742282.5905   5131459.3809   1  24   0.0002   0.0002   0.0002   0.0001   0.0001   0.0001   0.00  140.2
2267 354690.000   3337519.6003   1742282.5905   5131459.3809   1  25   0.0002   0.0002   0.0002   0.0001   0.0001   0.0001   0.00  145.6
2267 354720.000   3337519.6003   1742282.5905   5131459.3808   1  25   0.0002   0.0002   0.0002   0.0001   0.0001   0.0001   0.00  152.8
2267 354750.000   3337519.6003   1742282.5905   5131459.3808   1  24   0.0002   0.0002   0.0002   0.0001   0.0001   0.0001   0.00  158.3
2267 354780.000   3337519.6003   1742282.5905   5131459.3808   1  25   0.0002   0.0002   0.0002   0.0001   0.0001   0.0001   0.00  166.7
2267 354810.000   3337519.6003   1742282.5905   5131459.3808   1  26   0.0002   0.0002   0.0002   0.0001   0.0001   0.0001   0.00  173.2
2267 354840.000   3337519.6003   1742282.5905   5131459.3809   1  25   0.0002   0.0002   0.0002   0.0001   0.0001   0.0001   0.00  177.9
2267 354870.000   3337519.6003   1742282.5905   5131459.3808   1  25   0.0002   0.0002   0.0002   0.0001   0.0001   0.0001   0.00  183.0
2267 354900.000   3337519.6003   1742282.5905   5131459.3808   1  25   0.0002   0.0002   0.0002   0.0001   0.0001   0.0001   0.00  189.7
2267 354930.000   3337519.6003   1742282.5905   5131459.3808   1  25   0.0002   0.0002   0.0002   0.0001   0.0001   0.0001   0.00  195.1
2267 354960.000   3337519.6003   1742282.5905   5131459.3808   1  25   0.0002   0.0002   0.0002   0.0001   0.0001   0.0001   0.00  210.1
2267 354990.000   3337519.6003   1742282.5905   5131459.3808   1  25   0.0002   0.0002   0.0002   0.0001   0.0001   0.0001   0.00  219.7
2267 355020.000   3337519.6003   1742282.5905   5131459.3808   1  25   0.0002   0.0002   0.0002   0.0001   0.0001   0.0001   0.00  226.0
2267 355050.000   3337519.6003   1742282.5905   5131459.3808   1  24   0.0002   0.0002   0.0002   0.0001   0.0001   0.0001   0.00  231.7
2267 355080.000   3337519.6003   1742282.5905   5131459.3808   1  25   0.0002   0.0002   0.0002   0.0001   0.0001   0.0001   0.00  237.9
2267 355110.000   3337519.6003   1742282.5905   5131459.3808   1  25   0.0002   0.0002   0.0002   0.0001   0.0001   0.0001   0.00  245.1
2267 355140.000   3337519.6003   1742282.5905   5131459.3808   1  25   0.0002   0.0002   0.0002   0.0001   0.0001   0.0001   0.00  250.8
2267 355170.000   3337519.6003   1742282.5905   5131459.3808   1  25   0.0002   0.0002   0.0002   0.0001   0.0001   0.0001   0.00  255.8
2267 355200.000   3337519.6003   1742282.5905   5131459.3808   1  25   0.0002   0.0002   0.0002   0.0001   0.0001   0.0001   0.00  259.2
2267 355230.000   3337519.6003   1742282.5905   5131459.3808   1  25   0.0002   0.0002   0.0002   0.0001   0.0001   0.0001   0.00  264.5
2267 355260.000   3337519.6003   1742282.5905   5131459.3808   1  25   0.0002   0.0002   0.0002   0.0001   0.0001   0.0001   0.00  266.8
2267 355290.000   3337519.6003   1742282.5905   5131459.3808   1  24   0.0002   0.0002   0.0002   0.0001   0.0001   0.0001   0.00  273.2
2267 355320.000   3337519.6003   1742282.5905   5131459.3808   1  24   0.0002   0.0002   0.0002   0.0001   0.0001   0.0001   0.00  282.1
2267 355350.000   3337519.6003   1742282.5905   5131459.3808   1  24   0.0002   0.0002   0.0002   0.0001   0.0001   0.0001   0.00  292.0
2267 355380.000   3337519.6003   1742282.5905   5131459.3808   1  24   0.0002   0.0002   0.0002   0.0001   0.0001   0.0001   0.00  307.7
2267 355410.000   3337519.6003   1742282.5905   5131459.3808   1  24   0.0002   0.0002   0.0002   0.0001   0.0001   0.0001   0.00  318.3
2267 355440.000   3337519.6003   1742282.5905   5131459.3808   1  24   0.0002   0.0002   0.0002   0.0001   0.0001   0.0001   0.00  328.9
2267 355470.000   3337519.6003   1742282.5905   5131459.3808   1  24   0.0002   0.0002   0.0002   0.0001   0.0001   0.0001   0.00  340.7
2267 355500.000   3337519.6003   1742282.5905   5131459.3808   1  24   0.0002   0.0002   0.0002   0.0001   0.0001   0.0001   0.00  344.9
2267 355530.000   3337519.6003   1742282.5905   5131459.3808   1  24   0.0002   0.0002   0.0002   0.0001   0.0001   0.0001   0.00  350.1
2267 355560.000   3337519.6003   1742282.5905   5131459.3808   1  25   0.0002   0.0002   0.0002   0.0001   0.0001   0.0001   0.00  352.0
2267 355590.000   3337519.6003   1742282.5905   5131459.3808   1  25   0.0002   0.0002   0.0002   0.0001   0.0001   0.0001   0.00  360.4
2267 355620.000   3337519.6003   1742282.5905   5131459.3808   1  25   0.0002   0.0002   0.0002   0.0001   0.0001   0.0001   0.00  363.3
2267 355650.000   3337519.6003   1742282.5905   5131459.3808   1  25   0.0002   0.0002   0.0002   0.0001   0.0001   0.0001   0.00  364.4
2267 355680.000   3337519.6003   1742282.5905   5131459.3808   1  25   0.0002   0.0002   0.0002   0.0001   0.0001   0.0001   0.00  366.7
2267 355710.000   3337519.6003   1742282.5905   5131459.3808   1  25   0.0002   0.0002   0.0002   0.0001   0.0001   0.0001   0.00  366.8
2267 355740.000   3337519.6003   1742282.5905   5131459.3808   1  25   0.0002   0.0002   0.0002   0.0001   0.0001   0.0001   0.00  365.5
2267 355770.000   3337519.6003   1742282.5905   5131459.3808   1  25   0.0002   0.0002   0.0002   0.0001   0.0001   0.0001   0.00  363.2
2267 355800.000   3337519.6003   1742282.5905   5131459.3808   1  25   0.0002   0.0002   0.0002   0.0001   0.0001   0.0001   0.00  365.2
2267 355830.000   3337519.6003   1742282.5905   5131459.3808   1  25   0.0002   0.0002   0.0002   0.0001   0.0001   0.0001   0.00  372.0
2267 355860.000   3337519.6003   1742282.5905   5131459.3808   1  25   0.0002   0.0002   0.0002   0.0001   0.0001   0.0001   0.00  374.4
2267 355890.000   3337519.6003   1742282.5905   5131459.3809   1  25   0.0002   0.0002   0.0002   0.0001   0.0001   0.0001   0.00  381.5
2267 355920.000   3337519.6003   1742282.5905   5131459.3809   1  25   0.0002   0.0002   0.0002   0.0001   0.0001   0.0001   0.00  389.7
2267 355950.000   3337519.6003   1742282.5905   5131459.3808   1  25   0.0002   0.0002   0.0002   0.0001   0.0001   0.0001   0.00  399.2
2267 355980.000   3337519.6003   1742282.5905   5131459.3809   1  25   0.0002   0.0002   0.0002   0.0001   0.0001   0.0001   0.00  401.3
2267 356010.000   3337519.6003   1742282.5905   5131459.3809   1  25   0.0002   0.0002   0.0002   0.0001   0.0001   0.0001   0.00  408.3
2267 356040.000   3337519.6003   1742282.5905   5131459.3809   1  25   0.0002   0.0002   0.0002   0.0001   0.0001   0.0001   0.00  418.2
2267 356070.000   3337519.6003   1742282.5905   5131459.3809   1  25   0.0002   0.0002   0.0002   0.0001   0.0001   0.0001   0.00  427.9
2267 356100.000   3337519.6003   1742282.5905   5131459.3809   1  25   0.0002   0.0002   0.0002   0.0001   0.0001   0.0001   0.00  443.7
2267 356130.000   3337519.6003   1742282.5905   5131459.3809   1  25   0.0002   0.0002   0.0002   0.0001   0.0001   0.0001   0.00  462.9
2267 356160.000   3337519.6003   1742282.5905   5131459.3809   1  25   0.0002   0.0002   0.0002   0.0001   0.0001   0.0001   0.00  476.8
2267 356190.000   3337519.6003   1742282.5905   5131459.3809   1  25   0.0002   0.0002   0.0002   0.0001   0.0001   0.0001   0.00  485.2
2267 356220.000   3337519.6003   1742282.5905   5131459.3809   1  25   0.0002   0.0002   0.0002   0.0001   0.0001   0.0001   0.00  253.1
2267 356250.000   3337519.6003   1742282.5905   5131459.3809   1  25   0.0002   0.0002   0.0002   0.0001   0.0001   0.0001   0.00  268.5
2267 356280.000   3337519.6003   1742282.5905   5131459.3809   1  24   0.0002   0.0002   0.0002   0.0001   0.0001   0.0001   0.00  283.3
2267 356310.000   3337519.6003   1742282.5905   5131459.3809   1  24   0.0002   0.0002   0.0002   0.0001   0.0001   0.0001   0.00  294.8
2267 356340.000   3337519.6003   1742282.5905   5131459.3809   1  24   0.0002   0.0002   0.0002   0.0001   0.0001   0.0001   0.00  300.7
2267 356370.000   3337519.6003   1742282.5905   5131459.3809   1  24   0.0002   0.0002   0.0002   0.0001   0.0001   0.0001   0.00  311.4
2267 356400.000   3337519.6003   1742282.5905   5131459.3809   1  24   0.0002   0.0002   0.0002   0.0001   0.0001   0.0001   0.00  316.6
2267 356430.000   3337519.6003   1742282.5905   5131459.3809   1  24   0.0002   0.0002   0.0002   0.0001   0.0001   0.0001   0.00  323.8
2267 356460.000   3337519.6003   1742282.5905   5131459.3809   1  24   0.0002   0.0002   0.0002   0.0001   0.0001   0.0001   0.00  336.8
2267 356490.000   3337519.6003   1742282.5905   5131459.3809   1  24   0.0002   0.0002   0.0002   0.0001   0.0001   0.0001   0.00  343.9
2267 356520.000   3337519.6003   1742282.5905   5131459.3809   1  23   0.0002   0.0002   0.0002   0.0001   0.0001   0.0001   0.00  354.7
2267 356550.000   3337519.6003   1742282.5905   5131459.3809   1  23   0.0002   0.0002   0.0002   0.0001   0.0001   0.0001   0.00  367.1
2267 356580.000   3337519.6003   1742282.5905   5131459.3809   1  23   0.0002   0.0002   0.0002   0.0001   0.0001   0.0001   0.00  377.4
2267 356610.000   3337519.6003   1742282.5905   5131459.3809   1  23   0.0002   0.0002   0.0002   0.0001   0.0001   0.0001   0.00  396.9
2267 356640.000   3337519.6003   1742282.5905   5131459.3809   1  23   0.0002   0.0002   0.0002   0.0001   0.0001   0.0001   0.00  409.4
2267 356670.000   3337519.6003   1742282.5905   5131459.3809   1  23   0.0002   0.0002   0.0002   0.0001   0.0001   0.0001   0.00  421.4
2267 356700.000   3337519.6003   1742282.5905   5131459.3809   1  23   0.0002   0.0002   0.0002   0.0001   0.0001   0.0001   0.00  433.7
2267 356730.000   3337519.6003   1742282.5905   5131459.3809   1  23   0.0002   0.0002   0.0002   0.0001   0.0001   0.0001   0.00  446.4
2267 356760.000   3337519.6003   1742282.5905   5131459.3809   1  23   0.0002   0.0002   0.0002   0.0001   0.0001   0.0001   0.00   93.1
2267 356790.000   3337519.6003   1742282.5905   5131459.3809   1  23   0.0002   0.0002   0.0002   0.0001   0.0001   0.0001   0.00   97.6
2267 356820.000   3337519.6003   1742282.5905   5131459.3809   1  23   0.0002   0.0002   0.0002   0.0001   0.0001   0.0001   0.00  100.1
2267 356850.000   3337519.6003   1742282.5905   5131459.3809   1  23   0.0002   0.0002   0.0002   0.0001   0.0001   0.0001   0.00  104.0
2267 356880.000   3337519.6003   1742282.5905   5131459.3809   1  24   0.0002   0.0002   0.0002   0.0001   0.0001   0.0001   0.00  106.0
2267 356910.000   3337519.6003   1742282.5905   5131459.3809   1  24   0.0002   0.0002   0.0002   0.0001   0.0001   0.0001   0.00  109.6
2267 356940.000   3337519.6003   1742282.5905   5131459.3809   1  24   0.0002   0.0002   0.0002   0.0001   0.0001   0.0001   0.00  113.8
2267 356970.000   3337519.6003   1742282.5905   5131459.3809   1  24   0.0002   0.0002   0.0002   0.0001   0.0001   0.0001   0.00   17.1
2267 357000.000   3337519.6003   1742282.5905   5131459.3809   1  24   0.0002   0.0002   0.0002   0.0001   0.0001   0.0001   0.00   32.7
2267 357030.000   3337519.6003   1742282.5905   5131459.3809   1  25   0.0002   0.0002   0.0002   0.0001   0.0001   0.0001   0.00   50.4
2267 357060.000   3337519.6003   1742282.5905   5131459.3809   1  25   0.0002   0.0002   0.0002   0.0001   0.0001   0.0001   0.00   65.7
2267 357090.000   3337519.6003   1742282.5905   5131459.3809   1  25   0.0002   0.0002   0.0002   0.0001   0.0001   0.0001   0.00   78.1
2267 357120.000   3337519.6003   1742282.5905   5131459.3809   1  25   0.0002   0.0002   0.0002   0.0001   0.0001   0.0001   0.00   90.8
2267 357150.000   3337519.6003   1742282.5905   5131459.3809   1  25   0.0002   0.0002   0.0002   0.0001   0.0001   0.0001   0.00  108.7
2267 357180.000   3337519.6003   1742282.5905   5131459.3809   1  25   0.0002   0.0002   0.0002   0.0001   0.0001   0.0001   0.00  127.2
2267 357210.000   3337519.6004   1742282.5905   5131459.3809   1  25   0.0002   0.0002   0.0002   0.0001   0.0001   0.0001   0.00  166.6
2267 357240.000   3337519.6004   1742282.5905   5131459.3809   1  25   0.0002   0.0002   0.0002   0.0001   0.0001   0.0001   0.00  196.5
2267 357270.000   3337519.6004   1742282.5905   5131459.3809   1  25   0.0002   0.0002   0.0002   0.0001   0.0001   0.0001   0.00  217.4
2267 357300.000   3337519.6004   1742282.5905   5131459.3809   1  25   0.0002   0.0002   0.0002   0.0001   0.0001   0.0001   0.00  247.5
2267 357330.000   3337519.6004   1742282.5905   5131459.3809   1  26   0.0002   0.0002   0.0002   0.0001   0.0001   0.0001   0.00  268.7
2267 357360.000   3337519.6004   1742282.5905   5131459.3809   1  26   0.0002   0.0002   0.0002   0.0001   0.0001   0.0001   0.00  290.2
2267 357390.000   3337519.6004   1742282.5905   5131459.3809   1  26   0.0002   0.0002   0.0002   0.0001   0.0001   0.0001   0.00  315.8
2267 357420.000   3337519.6003   1742282.5905   5131459.3809   1  26   0.0002   0.0002   0.0002   0.0001   0.0001   0.0001   0.00  336.6
2267 357450.000   3337519.6003   1742282.5905   5131459.3809   1  26   0.0002   0.0002   0.0002   0.0001   0.0001   0.0001   0.00  366.8
2267 357480.000   3337519.6004   1742282.5905   5131459.3809   1  26   0.0002   0.0002   0.0002   0.0001   0.0001   0.0001   0.00  382.0
2267 357510.000   3337519.6003   1742282.5905   5131459.3809   1  26   0.0002   0.0002   0.0002   0.0001   0.0001   0.0001   0.00  389.0
2267 357540.000   3337519.6003   1742282.5905   5131459.3809   1  26   0.0002   0.0002   0.0002   0.0001   0.0001   0.0001   0.00  435.8
2267 357570.000   3337519.6003   1742282.5905   5131459.3809   1  27   0.0002   0.0002   0.0002   0.0001   0.0001   0.0001   0.00  438.1
2267 357600.000   3337519.6003   1742282.5905   5131459.3809   1  28   0.0002   0.0002   0.0002   0.0001   0.0001   0.0001   0.00  441.6
2267 357630.000   3337519.6003   1742282.5905   5131459.3809   1  28   0.0002   0.0002   0.0002   0.0001   0.0001   0.0001   0.00  442.3
2267 357660.000   3337519.6003   1742282.5905   5131459.3809   1  28   0.0002   0.0002   0.0002   0.0001   0.0001   0.0001   0.00  449.5
2267 357690.000   3337519.6003   1742282.5905   5131459.3809   1  28   0.0002   0.0002   0.0002   0.0001   0.0001   0.0001   0.00  448.5
2267 357720.000   3337519.6003   1742282.5905   5131459.3809   1  28   0.0002   0.0002   0.0002   0.0001   0.0001   0.0001   0.00  454.1
2267 357750.000   3337519.6003   1742282.5905   5131459.3809   1  28   0.0002   0.0002   0.0002   0.0001   0.0001   0.0001   0.00  459.3
2267 357780.000   3337519.6003   1742282.5905   5131459.3809   1  28   0.0002   0.0002   0.0002   0.0001   0.0001   0.0001   0.00  468.1
2267 357810.000   3337519.6003   1742282.5905   5131459.3809   1  28   0.0002   0.0002   0.0002   0.0001   0.0001   0.0001   0.00  479.3
2267 357840.000   3337519.6003   1742282.5905   5131459.3809   1  28   0.0002   0.0002   0.0002   0.0001   0.0001   0.0001   0.00  503.9
2267 357870.000   3337519.6003   1742282.5905   5131459.3809   1  28   0.0002   0.0002   0.0002   0.0001   0.0001   0.0001   0.00  515.3
2267 357900.000   3337519.6003   1742282.5905   5131459.3809   1  28   0.0002   0.0002   0.0002   0.0001   0.0001   0.0001   0.00  529.0
2267 357930.000   3337519.6003   1742282.5905   5131459.3809   1  28   0.0002   0.0002   0.0002   0.0001   0.0001   0.0001   0.00  531.6
2267 357960.000   3337519.6003   1742282.5905   5131459.3809   1  28   0.0002   0.0002   0.0002   0.0001   0.0001   0.0001   0.00  550.4
2267 357990.000   3337519.6003   1742282.5905   5131459.3809   1  28   0.0002   0.0002   0.0002   0.0001   0.0001   0.0001   0.00  561.5
2267 358020.000   3337519.6003   1742282.5905   5131459.3809   1  28   0.0002   0.0002   0.0002   0.0001   0.0001   0.0001   0.00  554.7
2267 358050.000   3337519.6003   1742282.5905   5131459.3809   1  28   0.0002   0.0002   0.0002   0.0001   0.0001   0.0001   0.00  558.6
2267 358080.000   3337519.6003   1742282.5905   5131459.3809   1  28   0.0002   0.0002   0.0002   0.0001   0.0001   0.0001   0.00  562.6
2267 358110.000   3337519.6003   1742282.5905   5131459.3809   1  28   0.0002   0.0002   0.0002   0.0001   0.0001   0.0001   0.00  569.8
2267 358140.000   3337519.6003   1742282.5905   5131459.3809   1  29   0.0002   0.0002   0.0002   0.0001   0.0001   0.0001   0.00  576.2
2267 358170.000   3337519.6003   1742282.5905   5131459.3809   1  29   0.0002   0.0002   0.0002   0.0001   0.0001   0.0001   0.00  575.6
2267 358200.000   3337519.6003   1742282.5905   5131459.3809   1  29   0.0002   0.0002   0.0002   0.0001   0.0001   0.0001   0.00  568.6
2267 358230.000   3337519.6003   1742282.5904   5131459.3809   1  29   0.0002   0.0002   0.0002   0.0001   0.0001   0.0001   0.00  571.9
2267 358260.000   3337519.6003   1742282.5904   5131459.3809   1  29   0.0002   0.0002   0.0002   0.0001   0.0001   0.0001   0.00  579.3
2267 358290.000   3337519.6003   1742282.5904   5131459.3809   1  29   0.0002   0.0002   0.0002   0.0001   0.0001   0.0001   0.00  581.8
