% program   : RTKPOST ver.demo5 b34g
% inp file  : E:\YandexDisk\!¡Õ“”\5 ÒÂÏÂÒÚ\Ã—√√Œ\À‡·‡ Ì‡ ˝ÍÁ‡ÏÂÌ\2022\MNSK00BLR_R_20221460000_01D_30S_MO.rnx
% inp file  : E:\YandexDisk\!¡Õ“”\5 ÒÂÏÂÒÚ\Ã—√√Œ\À‡·‡ Ì‡ ˝ÍÁ‡ÏÂÌ\2022\MNKW00BLR_R_20221460000_01D_30S_MO.rnx
% inp file  : E:\YandexDisk\!¡Õ“”\5 ÒÂÏÂÒÚ\Ã—√√Œ\À‡·‡ Ì‡ ˝ÍÁ‡ÏÂÌ\2022\MNKW00BLR_R_20221460000_01D_CN.rnx
% inp file  : E:\YandexDisk\!¡Õ“”\5 ÒÂÏÂÒÚ\Ã—√√Œ\À‡·‡ Ì‡ ˝ÍÁ‡ÏÂÌ\2022\MNKW00BLR_R_20221460000_01D_EN.rnx
% inp file  : E:\YandexDisk\!¡Õ“”\5 ÒÂÏÂÒÚ\Ã—√√Œ\À‡·‡ Ì‡ ˝ÍÁ‡ÏÂÌ\2022\MNKW00BLR_R_20221460000_01D_GN.rnx
% inp file  : E:\YandexDisk\!¡Õ“”\5 ÒÂÏÂÒÚ\Ã—√√Œ\À‡·‡ Ì‡ ˝ÍÁ‡ÏÂÌ\2022\MNKW00BLR_R_20221460000_01D_RN.rnx
% obs start : 2022/05/26 00:00:00.0 GPST (week2211 345600.0s)
% obs end   : 2022/05/26 23:59:30.0 GPST (week2211 431970.0s)
% pos mode  : Static
% freqs     : L1+L2/E5b
% solution  : Combined-Phase Reset
% elev mask : 5.0 deg
% dynamics  : on
% tidecorr  : off
% ionos opt : Broadcast
% tropo opt : Saastamoinen
% ephemeris : Broadcast
% navi sys  : GPS GLONASS Galileo BDS
% amb res   : Continuous
% amb glo   : Fix and Hold
% val thres : 3.0
% antenna1  :                       ( 0.0000  0.0000  0.0000)
% antenna2  :                       ( 0.0000  0.0000  0.0000)
% ref pos   :  3337518.3177   1742285.6146   5131459.2122
%
% (x/y/z-ecef=WGS84,Q=1:fix,2:float,3:sbas,4:dgps,5:single,6:ppp,ns=# of satellites)
%  GPST                      x-ecef(m)      y-ecef(m)      z-ecef(m)   Q  ns   sdx(m)   sdy(m)   sdz(m)  sdxy(m)  sdyz(m)  sdzx(m) age(s)  ratio
2022/05/26 00:00:00.000   3337519.6000   1742282.5900   5131459.3804   1  39   0.0002   0.0002   0.0002   0.0001   0.0001   0.0001   0.00  122.4
2022/05/26 00:00:30.000   3337519.6000   1742282.5900   5131459.3805   1  39   0.0002   0.0002   0.0002   0.0001   0.0001   0.0001   0.00  119.7
2022/05/26 00:01:00.000   3337519.6000   1742282.5900   5131459.3805   1  39   0.0002   0.0002   0.0002   0.0001   0.0001   0.0001   0.00  116.1
2022/05/26 00:01:30.000   3337519.6000   1742282.5901   5131459.3805   1  39   0.0002   0.0002   0.0002   0.0001   0.0001   0.0001   0.00   98.3
2022/05/26 00:02:00.000   3337519.6000   1742282.5901   5131459.3805   1  39   0.0002   0.0002   0.0002   0.0001   0.0001   0.0001   0.00  114.8
2022/05/26 00:02:30.000   3337519.6000   1742282.5901   5131459.3805   1  39   0.0002   0.0002   0.0002   0.0001   0.0001   0.0001   0.00  124.4
2022/05/26 00:03:00.000   3337519.6000   1742282.5901   5131459.3805   1  39   0.0002   0.0002   0.0002   0.0001   0.0001   0.0001   0.00  130.9
2022/05/26 00:03:30.000   3337519.6000   1742282.5901   5131459.3805   1  39   0.0002   0.0002   0.0002   0.0001   0.0001   0.0001   0.00  134.6
2022/05/26 00:04:00.000   3337519.6000   1742282.5901   5131459.3805   1  38   0.0002   0.0002   0.0002   0.0001   0.0001   0.0001   0.00  134.1
2022/05/26 00:04:30.000   3337519.6000   1742282.5901   5131459.3805   1  38   0.0002   0.0002   0.0002   0.0001   0.0001   0.0001   0.00  137.6
2022/05/26 00:05:00.000   3337519.6000   1742282.5901   5131459.3805   1  38   0.0002   0.0002   0.0002   0.0001   0.0001   0.0001   0.00  133.2
2022/05/26 00:05:30.000   3337519.6000   1742282.5901   5131459.3805   1  38   0.0002   0.0002   0.0002   0.0001   0.0001   0.0001   0.00  136.8
2022/05/26 00:06:00.000   3337519.6000   1742282.5901   5131459.3805   1  38   0.0002   0.0002   0.0002   0.0001   0.0001   0.0001   0.00  132.8
2022/05/26 00:06:30.000   3337519.6000   1742282.5901   5131459.3805   1  38   0.0002   0.0002   0.0002   0.0001   0.0001   0.0001   0.00  146.7
2022/05/26 00:07:00.000   3337519.6000   1742282.5901   5131459.3805   1  38   0.0002   0.0002   0.0002   0.0001   0.0001   0.0001   0.00  157.2
2022/05/26 00:07:30.000   3337519.6000   1742282.5901   5131459.3805   1  38   0.0002   0.0002   0.0002   0.0001   0.0001   0.0001   0.00  167.7
2022/05/26 00:08:00.000   3337519.6000   1742282.5901   5131459.3805   1  38   0.0002   0.0002   0.0002   0.0001   0.0001   0.0001   0.00  182.8
2022/05/26 00:08:30.000   3337519.6000   1742282.5901   5131459.3805   1  37   0.0002   0.0002   0.0002   0.0001   0.0001   0.0001   0.00  193.9
2022/05/26 00:09:00.000   3337519.6000   1742282.5901   5131459.3805   1  37   0.0002   0.0002   0.0002   0.0001   0.0001   0.0001   0.00  192.6
2022/05/26 00:09:30.000   3337519.6000   1742282.5901   5131459.3805   1  37   0.0002   0.0002   0.0002   0.0001   0.0001   0.0001   0.00  193.8
2022/05/26 00:10:00.000   3337519.6000   1742282.5901   5131459.3805   1  38   0.0002   0.0002   0.0002   0.0001   0.0001   0.0001   0.00  197.2
2022/05/26 00:10:30.000   3337519.6000   1742282.5901   5131459.3805   1  38   0.0002   0.0002   0.0002   0.0001   0.0001   0.0001   0.00  201.6
2022/05/26 00:11:00.000   3337519.6000   1742282.5901   5131459.3805   1  38   0.0002   0.0002   0.0002   0.0001   0.0001   0.0001   0.00  207.1
2022/05/26 00:11:30.000   3337519.6000   1742282.5901   5131459.3805   1  38   0.0002   0.0002   0.0002   0.0001   0.0001   0.0001   0.00  101.3
2022/05/26 00:12:00.000   3337519.6000   1742282.5901   5131459.3805   1  38   0.0002   0.0002   0.0002   0.0001   0.0001   0.0001   0.00  102.0
2022/05/26 00:12:30.000   3337519.6000   1742282.5901   5131459.3805   1  38   0.0002   0.0002   0.0002   0.0001   0.0001   0.0001   0.00  101.4
2022/05/26 00:13:00.000   3337519.6000   1742282.5901   5131459.3805   1  38   0.0002   0.0002   0.0002   0.0001   0.0001   0.0001   0.00  101.9
2022/05/26 00:13:30.000   3337519.6000   1742282.5901   5131459.3805   1  38   0.0002   0.0002   0.0002   0.0001   0.0001   0.0001   0.00  104.1
2022/05/26 00:14:00.000   3337519.6000   1742282.5901   5131459.3805   1  38   0.0002   0.0002   0.0002   0.0001   0.0001   0.0001   0.00  105.5
2022/05/26 00:14:30.000   3337519.6000   1742282.5901   5131459.3805   1  38   0.0002   0.0002   0.0002   0.0001   0.0001   0.0001   0.00  104.7
2022/05/26 00:15:00.000   3337519.6000   1742282.5901   5131459.3805   1  38   0.0002   0.0002   0.0002   0.0001   0.0001   0.0001   0.00  106.0
2022/05/26 00:15:30.000   3337519.6000   1742282.5901   5131459.3805   1  38   0.0002   0.0002   0.0002   0.0001   0.0001   0.0001   0.00  113.1
2022/05/26 00:16:00.000   3337519.6000   1742282.5901   5131459.3805   1  38   0.0002   0.0002   0.0002   0.0001   0.0001   0.0001   0.00   64.3
2022/05/26 00:16:30.000   3337519.6000   1742282.5901   5131459.3805   1  39   0.0002   0.0002   0.0002   0.0001   0.0001   0.0001   0.00   66.7
2022/05/26 00:17:00.000   3337519.6000   1742282.5901   5131459.3805   1  39   0.0002   0.0002   0.0002   0.0001   0.0001   0.0001   0.00   70.5
2022/05/26 00:17:30.000   3337519.6000   1742282.5901   5131459.3805   1  39   0.0002   0.0002   0.0002   0.0001   0.0001   0.0001   0.00   72.9
2022/05/26 00:18:00.000   3337519.6000   1742282.5901   5131459.3805   1  40   0.0002   0.0002   0.0002   0.0001   0.0001   0.0001   0.00   76.4
2022/05/26 00:18:30.000   3337519.6000   1742282.5901   5131459.3805   1  40   0.0002   0.0002   0.0002   0.0001   0.0001   0.0001   0.00   80.6
2022/05/26 00:19:00.000   3337519.6000   1742282.5901   5131459.3805   1  40   0.0002   0.0002   0.0002   0.0001   0.0001   0.0001   0.00   83.7
2022/05/26 00:19:30.000   3337519.6000   1742282.5901   5131459.3805   1  40   0.0002   0.0002   0.0002   0.0001   0.0001   0.0001   0.00   86.7
2022/05/26 00:20:00.000   3337519.6000   1742282.5901   5131459.3805   1  40   0.0002   0.0002   0.0002   0.0001   0.0001   0.0001   0.00   85.7
2022/05/26 00:20:30.000   3337519.6000   1742282.5901   5131459.3805   1  40   0.0002   0.0002   0.0002   0.0001   0.0001   0.0001   0.00   84.9
2022/05/26 00:21:00.000   3337519.6000   1742282.5901   5131459.3805   1  40   0.0002   0.0002   0.0002   0.0001   0.0001   0.0001   0.00   84.6
2022/05/26 00:21:30.000   3337519.6000   1742282.5901   5131459.3805   1  40   0.0002   0.0002   0.0002   0.0001   0.0001   0.0001   0.00   83.6
2022/05/26 00:22:00.000   3337519.6000   1742282.5901   5131459.3805   1  40   0.0002   0.0002   0.0002   0.0001   0.0001   0.0001   0.00   82.7
2022/05/26 00:22:30.000   3337519.6000   1742282.5901   5131459.3805   1  40   0.0002   0.0002   0.0002   0.0001   0.0001   0.0001   0.00   82.4
2022/05/26 00:23:00.000   3337519.6000   1742282.5901   5131459.3805   1  40   0.0002   0.0002   0.0002   0.0001   0.0001   0.0001   0.00   81.2
2022/05/26 00:23:30.000   3337519.6000   1742282.5901   5131459.3805   1  40   0.0002   0.0002   0.0002   0.0001   0.0001   0.0001   0.00   79.1
2022/05/26 00:24:00.000   3337519.6000   1742282.5901   5131459.3805   1  40   0.0002   0.0002   0.0002   0.0001   0.0001   0.0001   0.00   78.1
2022/05/26 00:24:30.000   3337519.6000   1742282.5901   5131459.3805   1  40   0.0002   0.0002   0.0002   0.0001   0.0001   0.0001   0.00   76.9
2022/05/26 00:25:00.000   3337519.6000   1742282.5901   5131459.3805   1  40   0.0002   0.0002   0.0002   0.0001   0.0001   0.0001   0.00   76.3
2022/05/26 00:25:30.000   3337519.6000   1742282.5901   5131459.3805   1  40   0.0002   0.0002   0.0002   0.0001   0.0001   0.0001   0.00   74.9
2022/05/26 00:26:00.000   3337519.6000   1742282.5901   5131459.3805   1  39   0.0002   0.0002   0.0002   0.0001   0.0001   0.0001   0.00   74.1
2022/05/26 00:26:30.000   3337519.6000   1742282.5901   5131459.3805   1  39   0.0002   0.0002   0.0002   0.0001   0.0001   0.0001   0.00   73.1
2022/05/26 00:27:00.000   3337519.6000   1742282.5901   5131459.3805   1  39   0.0002   0.0002   0.0002   0.0001   0.0001   0.0001   0.00   71.6
2022/05/26 00:27:30.000   3337519.6000   1742282.5901   5131459.3805   1  39   0.0002   0.0002   0.0002   0.0001   0.0001   0.0001   0.00   71.5
2022/05/26 00:28:00.000   3337519.6000   1742282.5901   5131459.3805   1  39   0.0002   0.0002   0.0002   0.0001   0.0001   0.0001   0.00   70.9
2022/05/26 00:28:30.000   3337519.6000   1742282.5901   5131459.3805   1  39   0.0002   0.0002   0.0002   0.0001   0.0001   0.0001   0.00   71.4
2022/05/26 00:29:00.000   3337519.6000   1742282.5901   5131459.3805   1  39   0.0002   0.0002   0.0002   0.0001   0.0001   0.0001   0.00   72.1
2022/05/26 00:29:30.000   3337519.6000   1742282.5901   5131459.3805   1  40   0.0002   0.0002   0.0002   0.0001   0.0001   0.0001   0.00   73.1
2022/05/26 00:30:00.000   3337519.6000   1742282.5901   5131459.3805   1  40   0.0002   0.0002   0.0002   0.0001   0.0001   0.0001   0.00   73.5
2022/05/26 00:30:30.000   3337519.6000   1742282.5901   5131459.3805   1  39   0.0002   0.0002   0.0002   0.0001   0.0001   0.0001   0.00   74.9
2022/05/26 00:31:00.000   3337519.6000   1742282.5901   5131459.3805   1  40   0.0002   0.0002   0.0002   0.0001   0.0001   0.0001   0.00   75.3
2022/05/26 00:31:30.000   3337519.6000   1742282.5902   5131459.3805   1  40   0.0002   0.0002   0.0002   0.0001   0.0001   0.0001   0.00   75.3
2022/05/26 00:32:00.000   3337519.6000   1742282.5902   5131459.3805   1  40   0.0002   0.0002   0.0002   0.0001   0.0001   0.0001   0.00   75.0
2022/05/26 00:32:30.000   3337519.6000   1742282.5902   5131459.3805   1  40   0.0002   0.0002   0.0002   0.0001   0.0001   0.0001   0.00   75.9
2022/05/26 00:33:00.000   3337519.6000   1742282.5902   5131459.3805   1  40   0.0002   0.0002   0.0002   0.0001   0.0001   0.0001   0.00   76.3
2022/05/26 00:33:30.000   3337519.6000   1742282.5902   5131459.3805   1  40   0.0002   0.0002   0.0002   0.0001   0.0001   0.0001   0.00   76.9
2022/05/26 00:34:00.000   3337519.6000   1742282.5902   5131459.3804   1  40   0.0002   0.0002   0.0002   0.0001   0.0001   0.0001   0.00   76.6
2022/05/26 00:34:30.000   3337519.6000   1742282.5902   5131459.3804   1  40   0.0002   0.0002   0.0002   0.0001   0.0001   0.0001   0.00   76.6
2022/05/26 00:35:00.000   3337519.6000   1742282.5902   5131459.3804   1  40   0.0002   0.0002   0.0002   0.0001   0.0001   0.0001   0.00   77.3
2022/05/26 00:35:30.000   3337519.6000   1742282.5902   5131459.3804   1  39   0.0002   0.0002   0.0002   0.0001   0.0001   0.0001   0.00   77.4
2022/05/26 00:36:00.000   3337519.6000   1742282.5902   5131459.3804   1  39   0.0002   0.0002   0.0002   0.0001   0.0001   0.0001   0.00   77.8
2022/05/26 00:36:30.000   3337519.6000   1742282.5902   5131459.3804   1  39   0.0002   0.0002   0.0002   0.0001   0.0001   0.0001   0.00   78.5
2022/05/26 00:37:00.000   3337519.6000   1742282.5902   5131459.3804   1  39   0.0002   0.0002   0.0002   0.0001   0.0001   0.0001   0.00   79.0
2022/05/26 00:37:30.000   3337519.6000   1742282.5902   5131459.3804   1  39   0.0002   0.0002   0.0002   0.0001   0.0001   0.0001   0.00   78.7
2022/05/26 00:38:00.000   3337519.6000   1742282.5902   5131459.3804   1  39   0.0002   0.0002   0.0002   0.0001   0.0001   0.0001   0.00   78.6
2022/05/26 00:38:30.000   3337519.6000   1742282.5902   5131459.3804   1  39   0.0002   0.0002   0.0002   0.0001   0.0001   0.0001   0.00   78.8
2022/05/26 00:39:00.000   3337519.6000   1742282.5902   5131459.3804   1  39   0.0002   0.0002   0.0002   0.0001   0.0001   0.0001   0.00   78.6
2022/05/26 00:39:30.000   3337519.6000   1742282.5902   5131459.3804   1  38   0.0002   0.0002   0.0002   0.0001   0.0001   0.0001   0.00   79.0
2022/05/26 00:40:00.000   3337519.6000   1742282.5902   5131459.3804   1  38   0.0002   0.0002   0.0002   0.0001   0.0001   0.0001   0.00   47.5
2022/05/26 00:40:30.000   3337519.6000   1742282.5902   5131459.3804   1  38   0.0002   0.0002   0.0002   0.0001   0.0001   0.0001   0.00   50.0
2022/05/26 00:41:00.000   3337519.6000   1742282.5902   5131459.3805   1  38   0.0002   0.0002   0.0002   0.0001   0.0001   0.0001   0.00   56.9
2022/05/26 00:41:30.000   3337519.6000   1742282.5902   5131459.3805   1  38   0.0002   0.0002   0.0002   0.0001   0.0001   0.0001   0.00   60.3
2022/05/26 00:42:00.000   3337519.6000   1742282.5902   5131459.3805   1  38   0.0002   0.0002   0.0002   0.0001   0.0001   0.0001   0.00   63.6
2022/05/26 00:42:30.000   3337519.6000   1742282.5902   5131459.3805   1  39   0.0002   0.0002   0.0002   0.0001   0.0001   0.0001   0.00   66.6
2022/05/26 00:43:00.000   3337519.6000   1742282.5902   5131459.3804   1  38   0.0002   0.0002   0.0002   0.0001   0.0001   0.0001   0.00   69.2
2022/05/26 00:43:30.000   3337519.6000   1742282.5902   5131459.3804   1  39   0.0002   0.0002   0.0002   0.0001   0.0001   0.0001   0.00   70.7
2022/05/26 00:44:00.000   3337519.6000   1742282.5902   5131459.3804   1  38   0.0002   0.0002   0.0002   0.0001   0.0001   0.0001   0.00   71.6
2022/05/26 00:44:30.000   3337519.6000   1742282.5902   5131459.3804   1  37   0.0002   0.0002   0.0002   0.0001   0.0001   0.0001   0.00   73.3
2022/05/26 00:45:00.000   3337519.6000   1742282.5902   5131459.3804   1  37   0.0002   0.0002   0.0002   0.0001   0.0001   0.0001   0.00   76.1
2022/05/26 00:45:30.000   3337519.6000   1742282.5902   5131459.3804   1  37   0.0002   0.0002   0.0002   0.0001   0.0001   0.0001   0.00   79.5
2022/05/26 00:46:00.000   3337519.6000   1742282.5902   5131459.3804   1  38   0.0002   0.0002   0.0002   0.0001   0.0001   0.0001   0.00   81.3
2022/05/26 00:46:30.000   3337519.6000   1742282.5902   5131459.3804   1  37   0.0002   0.0002   0.0002   0.0001   0.0001   0.0001   0.00   83.2
2022/05/26 00:47:00.000   3337519.6000   1742282.5902   5131459.3804   1  38   0.0002   0.0002   0.0002   0.0001   0.0001   0.0001   0.00   85.3
2022/05/26 00:47:30.000   3337519.6000   1742282.5902   5131459.3804   1  38   0.0002   0.0002   0.0002   0.0001   0.0001   0.0001   0.00   85.2
2022/05/26 00:48:00.000   3337519.6000   1742282.5902   5131459.3804   1  38   0.0002   0.0002   0.0002   0.0001   0.0001   0.0001   0.00   85.9
2022/05/26 00:48:30.000   3337519.6000   1742282.5902   5131459.3804   1  38   0.0002   0.0002   0.0002   0.0001   0.0001   0.0001   0.00   86.6
2022/05/26 00:49:00.000   3337519.6000   1742282.5902   5131459.3804   1  38   0.0002   0.0002   0.0002   0.0001   0.0001   0.0001   0.00   87.8
2022/05/26 00:49:30.000   3337519.6000   1742282.5902   5131459.3804   1  38   0.0002   0.0002   0.0002   0.0001   0.0001   0.0001   0.00   87.8
2022/05/26 00:50:00.000   3337519.6001   1742282.5903   5131459.3804   1  38   0.0002   0.0002   0.0002   0.0001   0.0001   0.0001   0.00   87.2
2022/05/26 00:50:30.000   3337519.6001   1742282.5903   5131459.3804   1  38   0.0002   0.0002   0.0002   0.0001   0.0001   0.0001   0.00   86.3
2022/05/26 00:51:00.000   3337519.6001   1742282.5903   5131459.3804   1  38   0.0002   0.0002   0.0002   0.0001   0.0001   0.0001   0.00   87.6
2022/05/26 00:51:30.000   3337519.6001   1742282.5903   5131459.3804   1  38   0.0002   0.0002   0.0002   0.0001   0.0001   0.0001   0.00   89.9
2022/05/26 00:52:00.000   3337519.6001   1742282.5903   5131459.3804   1  38   0.0002   0.0002   0.0002   0.0001   0.0001   0.0001   0.00   91.0
2022/05/26 00:52:30.000   3337519.6001   1742282.5903   5131459.3804   1  38   0.0002   0.0002   0.0002   0.0001   0.0001   0.0001   0.00   92.0
2022/05/26 00:53:00.000   3337519.6000   1742282.5903   5131459.3804   1  37   0.0002   0.0002   0.0002   0.0001   0.0001   0.0001   0.00   93.3
2022/05/26 00:53:30.000   3337519.6001   1742282.5903   5131459.3804   1  37   0.0002   0.0002   0.0002   0.0001   0.0001   0.0001   0.00   94.6
2022/05/26 00:54:00.000   3337519.6001   1742282.5903   5131459.3804   1  37   0.0002   0.0002   0.0002   0.0001   0.0001   0.0001   0.00   96.8
2022/05/26 00:54:30.000   3337519.6001   1742282.5903   5131459.3804   1  37   0.0002   0.0002   0.0002   0.0001   0.0001   0.0001   0.00   98.6
2022/05/26 00:55:00.000   3337519.6001   1742282.5903   5131459.3804   1  37   0.0002   0.0002   0.0002   0.0001   0.0001   0.0001   0.00   99.9
2022/05/26 00:55:30.000   3337519.6000   1742282.5903   5131459.3804   1  37   0.0002   0.0002   0.0002   0.0001   0.0001   0.0001   0.00  100.4
2022/05/26 00:56:00.000   3337519.6001   1742282.5903   5131459.3804   1  37   0.0002   0.0002   0.0002   0.0001   0.0001   0.0001   0.00  101.0
2022/05/26 00:56:30.000   3337519.6001   1742282.5903   5131459.3804   1  37   0.0002   0.0002   0.0002   0.0001   0.0001   0.0001   0.00  101.8
2022/05/26 00:57:00.000   3337519.6001   1742282.5903   5131459.3804   1  37   0.0002   0.0002   0.0002   0.0001   0.0001   0.0001   0.00  102.4
2022/05/26 00:57:30.000   3337519.6000   1742282.5903   5131459.3804   1  37   0.0002   0.0002   0.0002   0.0001   0.0001   0.0001   0.00  102.1
2022/05/26 00:58:00.000   3337519.6000   1742282.5903   5131459.3804   1  35   0.0002   0.0002   0.0002   0.0001   0.0001   0.0001   0.00  103.3
2022/05/26 00:58:30.000   3337519.6000   1742282.5903   5131459.3804   1  35   0.0002   0.0002   0.0002   0.0001   0.0001   0.0001   0.00  102.5
2022/05/26 00:59:00.000   3337519.6000   1742282.5903   5131459.3804   1  35   0.0002   0.0002   0.0002   0.0001   0.0001   0.0001   0.00  104.1
2022/05/26 00:59:30.000   3337519.6001   1742282.5903   5131459.3804   1  36   0.0002   0.0002   0.0002   0.0001   0.0001   0.0001   0.00  111.5
2022/05/26 01:00:00.000   3337519.6000   1742282.5903   5131459.3804   1  36   0.0002   0.0002   0.0002   0.0001   0.0001   0.0001   0.00  112.9
2022/05/26 01:00:30.000   3337519.6000   1742282.5903   5131459.3804   1  36   0.0002   0.0002   0.0002   0.0001   0.0001   0.0001   0.00  112.8
2022/05/26 01:01:00.000   3337519.6000   1742282.5903   5131459.3804   1  37   0.0002   0.0002   0.0002   0.0001   0.0001   0.0001   0.00  113.7
2022/05/26 01:01:30.000   3337519.6000   1742282.5903   5131459.3804   1  37   0.0002   0.0002   0.0002   0.0001   0.0001   0.0001   0.00  113.6
2022/05/26 01:02:00.000   3337519.6000   1742282.5903   5131459.3804   1  37   0.0002   0.0002   0.0002   0.0001   0.0001   0.0001   0.00  113.7
2022/05/26 01:02:30.000   3337519.6000   1742282.5903   5131459.3804   1  37   0.0002   0.0002   0.0002   0.0001   0.0001   0.0001   0.00  115.4
2022/05/26 01:03:00.000   3337519.6000   1742282.5903   5131459.3804   1  37   0.0002   0.0002   0.0002   0.0001   0.0001   0.0001   0.00  116.5
2022/05/26 01:03:30.000   3337519.6000   1742282.5903   5131459.3804   1  37   0.0002   0.0002   0.0002   0.0001   0.0001   0.0001   0.00  116.1
2022/05/26 01:04:00.000   3337519.6000   1742282.5903   5131459.3804   1  37   0.0002   0.0002   0.0002   0.0001   0.0001   0.0001   0.00  115.7
2022/05/26 01:04:30.000   3337519.6000   1742282.5903   5131459.3804   1  37   0.0002   0.0002   0.0002   0.0001   0.0001   0.0001   0.00  115.8
2022/05/26 01:05:00.000   3337519.6000   1742282.5903   5131459.3804   1  37   0.0002   0.0002   0.0002   0.0001   0.0001   0.0001   0.00  115.9
2022/05/26 01:05:30.000   3337519.6000   1742282.5903   5131459.3804   1  37   0.0002   0.0002   0.0002   0.0001   0.0001   0.0001   0.00  116.0
2022/05/26 01:06:00.000   3337519.6000   1742282.5903   5131459.3804   1  37   0.0002   0.0002   0.0002   0.0001   0.0001   0.0001   0.00  116.7
2022/05/26 01:06:30.000   3337519.6000   1742282.5903   5131459.3804   1  37   0.0002   0.0002   0.0002   0.0001   0.0001   0.0001   0.00  117.2
2022/05/26 01:07:00.000   3337519.6000   1742282.5903   5131459.3804   1  37   0.0002   0.0002   0.0002   0.0001   0.0001   0.0001   0.00  117.7
2022/05/26 01:07:30.000   3337519.6000   1742282.5903   5131459.3804   1  37   0.0002   0.0002   0.0002   0.0001   0.0001   0.0001   0.00  117.1
2022/05/26 01:08:00.000   3337519.6000   1742282.5903   5131459.3804   1  36   0.0002   0.0002   0.0002   0.0001   0.0001   0.0001   0.00  116.5
2022/05/26 01:08:30.000   3337519.6000   1742282.5903   5131459.3804   1  36   0.0002   0.0002   0.0002   0.0001   0.0001   0.0001   0.00  117.3
2022/05/26 01:09:00.000   3337519.6000   1742282.5903   5131459.3804   1  36   0.0002   0.0002   0.0002   0.0001   0.0001   0.0001   0.00  119.4
2022/05/26 01:09:30.000   3337519.6000   1742282.5903   5131459.3804   1  36   0.0002   0.0002   0.0002   0.0001   0.0001   0.0001   0.00  121.7
2022/05/26 01:10:00.000   3337519.6000   1742282.5902   5131459.3806   1  36   0.0002   0.0002   0.0002   0.0001   0.0001   0.0001   0.00  124.8
2022/05/26 01:10:30.000   3337519.6000   1742282.5902   5131459.3806   1  36   0.0002   0.0002   0.0002   0.0001   0.0001   0.0001   0.00  126.3
2022/05/26 01:11:00.000   3337519.6000   1742282.5902   5131459.3806   1  36   0.0002   0.0002   0.0002   0.0001   0.0001   0.0001   0.00  127.7
2022/05/26 01:11:30.000   3337519.6000   1742282.5902   5131459.3806   1  35   0.0002   0.0002   0.0002   0.0001   0.0001   0.0001   0.00  128.8
2022/05/26 01:12:00.000   3337519.6000   1742282.5902   5131459.3806   1  36   0.0002   0.0002   0.0002   0.0001   0.0001   0.0001   0.00  128.6
2022/05/26 01:12:30.000   3337519.6000   1742282.5902   5131459.3806   1  35   0.0002   0.0002   0.0002   0.0001   0.0001   0.0001   0.00  130.4
2022/05/26 01:13:00.000   3337519.6000   1742282.5902   5131459.3806   1  36   0.0002   0.0002   0.0002   0.0001   0.0001   0.0001   0.00  130.8
2022/05/26 01:13:30.000   3337519.6000   1742282.5902   5131459.3806   1  36   0.0002   0.0002   0.0002   0.0001   0.0001   0.0001   0.00  131.4
2022/05/26 01:14:00.000   3337519.6000   1742282.5902   5131459.3806   1  37   0.0002   0.0002   0.0002   0.0001   0.0001   0.0001   0.00  130.6
2022/05/26 01:14:30.000   3337519.6000   1742282.5902   5131459.3806   1  37   0.0002   0.0002   0.0002   0.0001   0.0001   0.0001   0.00  130.8
2022/05/26 01:15:00.000   3337519.6000   1742282.5902   5131459.3806   1  37   0.0002   0.0002   0.0002   0.0001   0.0001   0.0001   0.00  128.8
2022/05/26 01:15:30.000   3337519.6000   1742282.5902   5131459.3806   1  36   0.0002   0.0002   0.0002   0.0001   0.0001   0.0001   0.00  131.3
2022/05/26 01:16:00.000   3337519.6000   1742282.5902   5131459.3806   1  34   0.0002   0.0002   0.0002   0.0001   0.0001   0.0001   0.00  134.5
2022/05/26 01:16:30.000   3337519.6000   1742282.5902   5131459.3806   1  34   0.0002   0.0002   0.0002   0.0001   0.0001   0.0001   0.00  137.0
2022/05/26 01:17:00.000   3337519.6000   1742282.5902   5131459.3806   1  34   0.0002   0.0002   0.0002   0.0001   0.0001   0.0001   0.00  138.4
2022/05/26 01:17:30.000   3337519.6000   1742282.5902   5131459.3806   1  34   0.0002   0.0002   0.0002   0.0001   0.0001   0.0001   0.00  138.6
2022/05/26 01:18:00.000   3337519.6000   1742282.5902   5131459.3806   1  34   0.0002   0.0002   0.0002   0.0001   0.0001   0.0001   0.00  138.7
2022/05/26 01:18:30.000   3337519.6000   1742282.5902   5131459.3806   1  34   0.0002   0.0002   0.0002   0.0001   0.0001   0.0001   0.00  138.0
2022/05/26 01:19:00.000   3337519.6000   1742282.5902   5131459.3806   1  34   0.0002   0.0002   0.0002   0.0001   0.0001   0.0001   0.00  139.8
2022/05/26 01:19:30.000   3337519.6000   1742282.5902   5131459.3806   1  35   0.0002   0.0002   0.0002   0.0001   0.0001   0.0001   0.00  142.8
2022/05/26 01:20:00.000   3337519.6001   1742282.5902   5131459.3806   1  35   0.0002   0.0002   0.0002   0.0001   0.0001   0.0001   0.00  146.3
2022/05/26 01:20:30.000   3337519.6001   1742282.5902   5131459.3806   1  35   0.0002   0.0002   0.0002   0.0001   0.0001   0.0001   0.00  147.3
2022/05/26 01:21:00.000   3337519.6001   1742282.5902   5131459.3806   1  35   0.0002   0.0002   0.0002   0.0001   0.0001   0.0001   0.00  149.0
2022/05/26 01:21:30.000   3337519.6001   1742282.5902   5131459.3806   1  35   0.0002   0.0002   0.0002   0.0001   0.0001   0.0001   0.00  150.4
2022/05/26 01:22:00.000   3337519.6001   1742282.5902   5131459.3806   1  35   0.0002   0.0002   0.0002   0.0001   0.0001   0.0001   0.00  154.8
2022/05/26 01:22:30.000   3337519.6001   1742282.5902   5131459.3806   1  35   0.0002   0.0002   0.0002   0.0001   0.0001   0.0001   0.00  154.6
2022/05/26 01:23:00.000   3337519.6001   1742282.5902   5131459.3806   1  35   0.0002   0.0002   0.0002   0.0001   0.0001   0.0001   0.00  187.9
2022/05/26 01:23:30.000   3337519.6001   1742282.5902   5131459.3806   1  35   0.0002   0.0002   0.0002   0.0001   0.0001   0.0001   0.00  192.3
2022/05/26 01:24:00.000   3337519.6001   1742282.5902   5131459.3806   1  36   0.0002   0.0002   0.0002   0.0001   0.0001   0.0001   0.00  196.9
2022/05/26 01:24:30.000   3337519.6001   1742282.5902   5131459.3806   1  36   0.0002   0.0002   0.0002   0.0001   0.0001   0.0001   0.00  200.0
2022/05/26 01:25:00.000   3337519.6001   1742282.5902   5131459.3807   1  36   0.0002   0.0002   0.0002   0.0001   0.0001   0.0001   0.00  208.5
2022/05/26 01:25:30.000   3337519.6001   1742282.5902   5131459.3807   1  36   0.0002   0.0002   0.0002   0.0001   0.0001   0.0001   0.00  213.7
2022/05/26 01:26:00.000   3337519.6001   1742282.5902   5131459.3807   1  35   0.0002   0.0002   0.0002   0.0001   0.0001   0.0001   0.00  221.1
2022/05/26 01:26:30.000   3337519.6001   1742282.5902   5131459.3807   1  35   0.0002   0.0002   0.0002   0.0001   0.0001   0.0001   0.00  228.0
2022/05/26 01:27:00.000   3337519.6001   1742282.5902   5131459.3806   1  35   0.0002   0.0002   0.0002   0.0001   0.0001   0.0001   0.00  229.2
2022/05/26 01:27:30.000   3337519.6001   1742282.5902   5131459.3806   1  35   0.0002   0.0002   0.0002   0.0001   0.0001   0.0001   0.00  229.6
2022/05/26 01:28:00.000   3337519.6001   1742282.5902   5131459.3806   1  36   0.0002   0.0002   0.0002   0.0001   0.0001   0.0001   0.00  239.0
2022/05/26 01:28:30.000   3337519.6001   1742282.5902   5131459.3806   1  36   0.0002   0.0002   0.0002   0.0001   0.0001   0.0001   0.00  106.7
2022/05/26 01:29:00.000   3337519.6001   1742282.5902   5131459.3806   1  37   0.0002   0.0002   0.0002   0.0001   0.0001   0.0001   0.00  110.9
2022/05/26 01:29:30.000   3337519.6001   1742282.5902   5131459.3806   1  37   0.0002   0.0002   0.0002   0.0001   0.0001   0.0001   0.00  114.4
2022/05/26 01:30:00.000   3337519.6001   1742282.5902   5131459.3806   1  37   0.0002   0.0002   0.0002   0.0001   0.0001   0.0001   0.00  118.3
2022/05/26 01:30:30.000   3337519.6001   1742282.5902   5131459.3806   1  37   0.0002   0.0002   0.0002   0.0001   0.0001   0.0001   0.00  124.6
2022/05/26 01:31:00.000   3337519.6001   1742282.5902   5131459.3806   1  37   0.0002   0.0002   0.0002   0.0001   0.0001   0.0001   0.00  130.2
2022/05/26 01:31:30.000   3337519.6001   1742282.5902   5131459.3806   1  36   0.0002   0.0002   0.0002   0.0001   0.0001   0.0001   0.00  133.6
2022/05/26 01:32:00.000   3337519.6001   1742282.5902   5131459.3806   1  36   0.0002   0.0002   0.0002   0.0001   0.0001   0.0001   0.00  138.4
2022/05/26 01:32:30.000   3337519.6001   1742282.5902   5131459.3806   1  36   0.0002   0.0002   0.0002   0.0001   0.0001   0.0001   0.00  143.9
2022/05/26 01:33:00.000   3337519.6001   1742282.5902   5131459.3806   1  36   0.0002   0.0002   0.0002   0.0001   0.0001   0.0001   0.00  146.8
2022/05/26 01:33:30.000   3337519.6001   1742282.5902   5131459.3805   1  36   0.0002   0.0002   0.0002   0.0001   0.0001   0.0001   0.00  151.0
2022/05/26 01:34:00.000   3337519.6001   1742282.5902   5131459.3805   1  36   0.0002   0.0002   0.0002   0.0001   0.0001   0.0001   0.00  154.0
2022/05/26 01:34:30.000   3337519.6001   1742282.5902   5131459.3805   1  36   0.0002   0.0002   0.0002   0.0001   0.0001   0.0001   0.00  158.9
2022/05/26 01:35:00.000   3337519.6001   1742282.5902   5131459.3805   1  36   0.0002   0.0002   0.0002   0.0001   0.0001   0.0001   0.00  162.5
2022/05/26 01:35:30.000   3337519.6001   1742282.5902   5131459.3805   1  35   0.0002   0.0002   0.0002   0.0001   0.0001   0.0001   0.00  167.6
2022/05/26 01:36:00.000   3337519.6001   1742282.5902   5131459.3805   1  35   0.0002   0.0002   0.0002   0.0001   0.0001   0.0001   0.00  173.4
2022/05/26 01:36:30.000   3337519.6001   1742282.5902   5131459.3805   1  35   0.0002   0.0002   0.0002   0.0001   0.0001   0.0001   0.00  177.9
2022/05/26 01:37:00.000   3337519.6001   1742282.5902   5131459.3805   1  35   0.0002   0.0002   0.0002   0.0001   0.0001   0.0001   0.00  182.1
2022/05/26 01:37:30.000   3337519.6001   1742282.5902   5131459.3805   1  35   0.0002   0.0002   0.0002   0.0001   0.0001   0.0001   0.00  187.7
2022/05/26 01:38:00.000   3337519.6001   1742282.5902   5131459.3805   1  35   0.0002   0.0002   0.0002   0.0001   0.0001   0.0001   0.00  191.4
2022/05/26 01:38:30.000   3337519.6001   1742282.5902   5131459.3805   1  35   0.0002   0.0002   0.0002   0.0001   0.0001   0.0001   0.00  196.7
2022/05/26 01:39:00.000   3337519.6001   1742282.5902   5131459.3805   1  35   0.0002   0.0002   0.0002   0.0001   0.0001   0.0001   0.00  203.3
2022/05/26 01:39:30.000   3337519.6001   1742282.5902   5131459.3805   1  35   0.0002   0.0002   0.0002   0.0001   0.0001   0.0001   0.00  207.3
2022/05/26 01:40:00.000   3337519.6001   1742282.5902   5131459.3805   1  35   0.0002   0.0002   0.0002   0.0001   0.0001   0.0001   0.00  213.4
2022/05/26 01:40:30.000   3337519.6001   1742282.5902   5131459.3805   1  35   0.0002   0.0002   0.0002   0.0001   0.0001   0.0001   0.00  219.9
2022/05/26 01:41:00.000   3337519.6001   1742282.5902   5131459.3805   1  35   0.0002   0.0002   0.0002   0.0001   0.0001   0.0001   0.00  227.4
2022/05/26 01:41:30.000   3337519.6001   1742282.5902   5131459.3805   1  35   0.0002   0.0002   0.0002   0.0001   0.0001   0.0001   0.00  235.9
2022/05/26 01:42:00.000   3337519.6001   1742282.5902   5131459.3805   1  35   0.0002   0.0002   0.0002   0.0001   0.0001   0.0001   0.00  245.1
2022/05/26 01:42:30.000   3337519.6001   1742282.5902   5131459.3805   1  35   0.0002   0.0002   0.0002   0.0001   0.0001   0.0001   0.00  249.8
2022/05/26 01:43:00.000   3337519.6001   1742282.5902   5131459.3805   1  35   0.0002   0.0002   0.0002   0.0001   0.0001   0.0001   0.00  255.5
2022/05/26 01:43:30.000   3337519.6001   1742282.5902   5131459.3805   1  35   0.0002   0.0002   0.0002   0.0001   0.0001   0.0001   0.00  263.3
2022/05/26 01:44:00.000   3337519.6001   1742282.5902   5131459.3805   1  35   0.0002   0.0002   0.0002   0.0001   0.0001   0.0001   0.00  268.5
2022/05/26 01:44:30.000   3337519.6001   1742282.5902   5131459.3805   1  35   0.0002   0.0002   0.0002   0.0001   0.0001   0.0001   0.00  272.3
2022/05/26 01:45:00.000   3337519.6001   1742282.5902   5131459.3805   1  35   0.0002   0.0002   0.0002   0.0001   0.0001   0.0001   0.00  281.4
2022/05/26 01:45:30.000   3337519.6001   1742282.5902   5131459.3805   1  35   0.0002   0.0002   0.0002   0.0001   0.0001   0.0001   0.00  286.5
2022/05/26 01:46:00.000   3337519.6001   1742282.5902   5131459.3805   1  35   0.0002   0.0002   0.0002   0.0001   0.0001   0.0001   0.00  294.7
2022/05/26 01:46:30.000   3337519.6001   1742282.5902   5131459.3805   1  35   0.0002   0.0002   0.0002   0.0001   0.0001   0.0001   0.00  303.5
2022/05/26 01:47:00.000   3337519.6001   1742282.5902   5131459.3805   1  35   0.0002   0.0002   0.0002   0.0001   0.0001   0.0001   0.00  314.2
2022/05/26 01:47:30.000   3337519.6001   1742282.5902   5131459.3805   1  35   0.0002   0.0002   0.0002   0.0001   0.0001   0.0001   0.00  322.5
2022/05/26 01:48:00.000   3337519.6001   1742282.5902   5131459.3805   1  35   0.0002   0.0002   0.0002   0.0001   0.0001   0.0001   0.00  330.2
2022/05/26 01:48:30.000   3337519.6001   1742282.5902   5131459.3805   1  34   0.0002   0.0002   0.0002   0.0001   0.0001   0.0001   0.00  333.4
2022/05/26 01:49:00.000   3337519.6001   1742282.5902   5131459.3805   1  34   0.0002   0.0002   0.0002   0.0001   0.0001   0.0001   0.00  340.4
2022/05/26 01:49:30.000   3337519.6001   1742282.5902   5131459.3805   1  34   0.0002   0.0002   0.0002   0.0001   0.0001   0.0001   0.00  346.6
2022/05/26 01:50:00.000   3337519.6001   1742282.5902   5131459.3805   1  34   0.0002   0.0002   0.0002   0.0001   0.0001   0.0001   0.00   86.0
2022/05/26 01:50:30.000   3337519.6001   1742282.5902   5131459.3805   1  34   0.0002   0.0002   0.0002   0.0001   0.0001   0.0001   0.00   89.3
2022/05/26 01:51:00.000   3337519.6001   1742282.5902   5131459.3805   1  34   0.0002   0.0002   0.0002   0.0001   0.0001   0.0001   0.00   89.0
2022/05/26 01:51:30.000   3337519.6000   1742282.5902   5131459.3805   1  34   0.0002   0.0002   0.0002   0.0001   0.0001   0.0001   0.00   86.7
2022/05/26 01:52:00.000   3337519.6000   1742282.5902   5131459.3805   1  34   0.0002   0.0002   0.0002   0.0001   0.0001   0.0001   0.00   85.0
2022/05/26 01:52:30.000   3337519.6000   1742282.5902   5131459.3804   1  34   0.0002   0.0002   0.0002   0.0001   0.0001   0.0001   0.00   82.0
2022/05/26 01:53:00.000   3337519.6000   1742282.5902   5131459.3804   1  34   0.0002   0.0002   0.0002   0.0001   0.0001   0.0001   0.00   80.0
2022/05/26 01:53:30.000   3337519.6000   1742282.5902   5131459.3804   1  33   0.0002   0.0002   0.0002   0.0001   0.0001   0.0001   0.00   84.8
2022/05/26 01:54:00.000   3337519.6000   1742282.5902   5131459.3804   1  33   0.0002   0.0002   0.0002   0.0001   0.0001   0.0001   0.00   89.0
2022/05/26 01:54:30.000   3337519.6000   1742282.5902   5131459.3804   1  33   0.0002   0.0002   0.0002   0.0001   0.0001   0.0001   0.00   94.9
2022/05/26 01:55:00.000   3337519.6000   1742282.5902   5131459.3804   1  33   0.0002   0.0002   0.0002   0.0001   0.0001   0.0001   0.00  100.3
2022/05/26 01:55:30.000   3337519.6000   1742282.5902   5131459.3804   1  33   0.0002   0.0002   0.0002   0.0001   0.0001   0.0001   0.00  106.1
2022/05/26 01:56:00.000   3337519.6000   1742282.5902   5131459.3804   1  33   0.0002   0.0002   0.0002   0.0001   0.0001   0.0001   0.00  110.2
2022/05/26 01:56:30.000   3337519.6001   1742282.5902   5131459.3805   1  33   0.0002   0.0002   0.0002   0.0001   0.0001   0.0001   0.00  120.0
2022/05/26 01:57:00.000   3337519.6001   1742282.5901   5131459.3805   1  33   0.0002   0.0002   0.0002   0.0001   0.0001   0.0001   0.00  126.9
2022/05/26 01:57:30.000   3337519.6001   1742282.5902   5131459.3805   1  33   0.0002   0.0002   0.0002   0.0001   0.0001   0.0001   0.00  132.4
2022/05/26 01:58:00.000   3337519.6001   1742282.5902   5131459.3805   1  32   0.0002   0.0002   0.0002   0.0001   0.0001   0.0001   0.00  136.1
2022/05/26 01:58:30.000   3337519.6001   1742282.5901   5131459.3805   1  34   0.0002   0.0002   0.0002   0.0001   0.0001   0.0001   0.00  139.1
2022/05/26 01:59:00.000   3337519.6001   1742282.5901   5131459.3805   1  34   0.0002   0.0002   0.0002   0.0001   0.0001   0.0001   0.00  142.9
2022/05/26 01:59:30.000   3337519.6001   1742282.5901   5131459.3805   1  34   0.0002   0.0002   0.0002   0.0001   0.0001   0.0001   0.00  147.1
2022/05/26 02:00:00.000   3337519.6001   1742282.5901   5131459.3805   1  34   0.0002   0.0002   0.0002   0.0001   0.0001   0.0001   0.00  150.8
2022/05/26 02:00:30.000   3337519.6001   1742282.5901   5131459.3805   1  35   0.0002   0.0002   0.0002   0.0001   0.0001   0.0001   0.00  155.1
2022/05/26 02:01:00.000   3337519.6001   1742282.5901   5131459.3805   1  35   0.0002   0.0002   0.0002   0.0001   0.0001   0.0001   0.00  156.6
2022/05/26 02:01:30.000   3337519.6001   1742282.5901   5131459.3805   1  35   0.0002   0.0002   0.0002   0.0001   0.0001   0.0001   0.00  157.7
2022/05/26 02:02:00.000   3337519.6001   1742282.5901   5131459.3805   1  35   0.0002   0.0002   0.0002   0.0001   0.0001   0.0001   0.00  162.3
2022/05/26 02:02:30.000   3337519.6001   1742282.5901   5131459.3805   1  35   0.0002   0.0002   0.0002   0.0001   0.0001   0.0001   0.00  168.7
2022/05/26 02:03:00.000   3337519.6001   1742282.5901   5131459.3805   1  35   0.0002   0.0002   0.0002   0.0001   0.0001   0.0001   0.00  174.0
2022/05/26 02:03:30.000   3337519.6001   1742282.5901   5131459.3805   1  35   0.0002   0.0002   0.0002   0.0001   0.0001   0.0001   0.00  177.3
2022/05/26 02:04:00.000   3337519.6001   1742282.5901   5131459.3804   1  35   0.0002   0.0002   0.0002   0.0001   0.0001   0.0001   0.00  181.7
2022/05/26 02:04:30.000   3337519.6001   1742282.5901   5131459.3804   1  35   0.0002   0.0002   0.0002   0.0001   0.0001   0.0001   0.00  187.8
2022/05/26 02:05:00.000   3337519.6001   1742282.5901   5131459.3804   1  36   0.0002   0.0002   0.0002   0.0001   0.0001   0.0001   0.00  192.9
2022/05/26 02:05:30.000   3337519.6001   1742282.5901   5131459.3804   1  36   0.0002   0.0002   0.0002   0.0001   0.0001   0.0001   0.00  198.6
2022/05/26 02:06:00.000   3337519.6001   1742282.5901   5131459.3804   1  36   0.0002   0.0002   0.0002   0.0001   0.0001   0.0001   0.00  206.4
2022/05/26 02:06:30.000   3337519.6001   1742282.5901   5131459.3804   1  36   0.0002   0.0002   0.0002   0.0001   0.0001   0.0001   0.00  211.4
2022/05/26 02:07:00.000   3337519.6001   1742282.5901   5131459.3805   1  37   0.0002   0.0002   0.0002   0.0001   0.0001   0.0001   0.00  220.6
2022/05/26 02:07:30.000   3337519.6001   1742282.5901   5131459.3805   1  37   0.0002   0.0002   0.0002   0.0001   0.0001   0.0001   0.00  224.2
2022/05/26 02:08:00.000   3337519.6001   1742282.5901   5131459.3805   1  37   0.0002   0.0002   0.0002   0.0001   0.0001   0.0001   0.00  231.9
2022/05/26 02:08:30.000   3337519.6001   1742282.5901   5131459.3804   1  39   0.0002   0.0002   0.0002   0.0001   0.0001   0.0001   0.00  241.1
2022/05/26 02:09:00.000   3337519.6001   1742282.5901   5131459.3804   1  39   0.0002   0.0002   0.0002   0.0001   0.0001   0.0001   0.00  250.7
2022/05/26 02:09:30.000   3337519.6001   1742282.5901   5131459.3804   1  39   0.0002   0.0002   0.0002   0.0001   0.0001   0.0001   0.00  256.6
2022/05/26 02:10:00.000   3337519.6001   1742282.5901   5131459.3804   1  39   0.0002   0.0002   0.0002   0.0001   0.0001   0.0001   0.00  265.3
2022/05/26 02:10:30.000   3337519.6001   1742282.5901   5131459.3804   1  39   0.0002   0.0002   0.0002   0.0001   0.0001   0.0001   0.00  270.0
2022/05/26 02:11:00.000   3337519.6001   1742282.5901   5131459.3804   1  39   0.0002   0.0002   0.0002   0.0001   0.0001   0.0001   0.00  277.2
2022/05/26 02:11:30.000   3337519.6001   1742282.5901   5131459.3804   1  39   0.0002   0.0002   0.0002   0.0001   0.0001   0.0001   0.00  280.4
2022/05/26 02:12:00.000   3337519.6001   1742282.5901   5131459.3804   1  39   0.0002   0.0002   0.0002   0.0001   0.0001   0.0001   0.00  287.2
2022/05/26 02:12:30.000   3337519.6001   1742282.5901   5131459.3804   1  40   0.0002   0.0002   0.0002   0.0001   0.0001   0.0001   0.00  297.4
2022/05/26 02:13:00.000   3337519.6001   1742282.5901   5131459.3804   1  40   0.0002   0.0002   0.0002   0.0001   0.0001   0.0001   0.00  296.7
2022/05/26 02:13:30.000   3337519.6001   1742282.5901   5131459.3804   1  40   0.0002   0.0002   0.0002   0.0001   0.0001   0.0001   0.00    8.2
2022/05/26 02:14:00.000   3337519.6001   1742282.5901   5131459.3805   1  40   0.0002   0.0002   0.0002   0.0001   0.0001   0.0001   0.00   12.6
2022/05/26 02:14:30.000   3337519.6001   1742282.5901   5131459.3805   1  41   0.0002   0.0002   0.0002   0.0001   0.0001   0.0001   0.00   15.9
2022/05/26 02:15:00.000   3337519.6001   1742282.5901   5131459.3805   1  41   0.0002   0.0002   0.0002   0.0001   0.0001   0.0001   0.00   19.4
2022/05/26 02:15:30.000   3337519.6001   1742282.5901   5131459.3805   1  41   0.0002   0.0002   0.0002   0.0001   0.0001   0.0001   0.00   22.7
2022/05/26 02:16:00.000   3337519.6001   1742282.5901   5131459.3805   1  41   0.0002   0.0002   0.0002   0.0001   0.0001   0.0001   0.00   25.9
2022/05/26 02:16:30.000   3337519.6001   1742282.5901   5131459.3805   1  41   0.0002   0.0002   0.0002   0.0001   0.0001   0.0001   0.00   29.0
2022/05/26 02:17:00.000   3337519.6001   1742282.5901   5131459.3805   1  41   0.0002   0.0002   0.0002   0.0001   0.0001   0.0001   0.00   31.9
2022/05/26 02:17:30.000   3337519.6001   1742282.5901   5131459.3805   1  41   0.0002   0.0002   0.0002   0.0001   0.0001   0.0001   0.00   34.5
2022/05/26 02:18:00.000   3337519.6001   1742282.5901   5131459.3805   1  41   0.0002   0.0002   0.0002   0.0001   0.0001   0.0001   0.00   37.9
2022/05/26 02:18:30.000   3337519.6001   1742282.5901   5131459.3805   1  41   0.0002   0.0002   0.0002   0.0001   0.0001   0.0001   0.00   41.0
2022/05/26 02:19:00.000   3337519.6001   1742282.5901   5131459.3805   1  41   0.0002   0.0002   0.0002   0.0001   0.0001   0.0001   0.00   44.2
2022/05/26 02:19:30.000   3337519.6001   1742282.5901   5131459.3804   1  41   0.0002   0.0002   0.0002   0.0001   0.0001   0.0001   0.00   51.5
2022/05/26 02:20:00.000   3337519.6001   1742282.5901   5131459.3804   1  41   0.0002   0.0002   0.0002   0.0001   0.0001   0.0001   0.00   55.3
2022/05/26 02:20:30.000   3337519.6001   1742282.5901   5131459.3804   1  41   0.0002   0.0002   0.0002   0.0001   0.0001   0.0001   0.00   14.7
2022/05/26 02:21:00.000   3337519.6001   1742282.5901   5131459.3804   1  41   0.0002   0.0002   0.0002   0.0001   0.0001   0.0001   0.00    9.5
2022/05/26 02:21:30.000   3337519.6001   1742282.5901   5131459.3804   1  41   0.0002   0.0002   0.0002   0.0001   0.0001   0.0001   0.00    8.7
2022/05/26 02:22:00.000   3337519.6001   1742282.5901   5131459.3804   1  41   0.0002   0.0002   0.0002   0.0001   0.0001   0.0001   0.00   14.9
2022/05/26 02:22:30.000   3337519.6001   1742282.5901   5131459.3804   1  41   0.0002   0.0002   0.0002   0.0001   0.0001   0.0001   0.00   29.0
2022/05/26 02:23:00.000   3337519.6001   1742282.5902   5131459.3804   1  41   0.0002   0.0002   0.0002   0.0001   0.0001   0.0001   0.00    3.5
2022/05/26 02:23:30.000   3337519.6002   1742282.5902   5131459.3806   1  41   0.0002   0.0002   0.0002   0.0001   0.0001   0.0001   0.00  543.2
2022/05/26 02:24:00.000   3337519.6002   1742282.5902   5131459.3806   1  41   0.0002   0.0002   0.0002   0.0001   0.0001   0.0001   0.00  538.7
2022/05/26 02:24:30.000   3337519.6000   1742282.5901   5131459.3804   1  41   0.0002   0.0002   0.0002   0.0001   0.0001   0.0001   0.00    3.6
2022/05/26 02:25:00.000   3337519.6000   1742282.5901   5131459.3804   1  41   0.0002   0.0002   0.0002   0.0001   0.0001   0.0001   0.00    5.7
2022/05/26 02:25:30.000   3337519.6000   1742282.5901   5131459.3804   1  41   0.0002   0.0002   0.0002   0.0001   0.0001   0.0001   0.00    8.4
2022/05/26 02:26:00.000   3337519.6000   1742282.5901   5131459.3804   1  41   0.0002   0.0002   0.0002   0.0001   0.0001   0.0001   0.00   11.6
2022/05/26 02:26:30.000   3337519.6000   1742282.5901   5131459.3804   1  41   0.0002   0.0002   0.0002   0.0001   0.0001   0.0001   0.00   15.3
2022/05/26 02:27:00.000   3337519.6000   1742282.5901   5131459.3804   1  41   0.0002   0.0002   0.0002   0.0001   0.0001   0.0001   0.00   19.7
2022/05/26 02:27:30.000   3337519.6000   1742282.5901   5131459.3804   1  40   0.0002   0.0002   0.0002   0.0001   0.0001   0.0001   0.00   23.0
2022/05/26 02:28:00.000   3337519.6000   1742282.5901   5131459.3804   1  40   0.0002   0.0002   0.0002   0.0001   0.0001   0.0001   0.00   26.1
2022/05/26 02:28:30.000   3337519.6000   1742282.5901   5131459.3804   1  41   0.0002   0.0002   0.0002   0.0001   0.0001   0.0001   0.00   28.7
2022/05/26 02:29:00.000   3337519.6000   1742282.5901   5131459.3804   1  40   0.0002   0.0002   0.0002   0.0001   0.0001   0.0001   0.00   31.4
2022/05/26 02:29:30.000   3337519.6000   1742282.5901   5131459.3804   1  40   0.0002   0.0002   0.0002   0.0001   0.0001   0.0001   0.00   34.3
2022/05/26 02:30:00.000   3337519.6000   1742282.5901   5131459.3804   1  40   0.0002   0.0002   0.0002   0.0001   0.0001   0.0001   0.00   37.7
2022/05/26 02:30:30.000   3337519.6000   1742282.5901   5131459.3804   1  39   0.0002   0.0002   0.0002   0.0001   0.0001   0.0001   0.00   40.2
2022/05/26 02:31:00.000   3337519.6000   1742282.5901   5131459.3804   1  39   0.0002   0.0002   0.0002   0.0001   0.0001   0.0001   0.00   43.8
2022/05/26 02:31:30.000   3337519.6000   1742282.5901   5131459.3804   1  39   0.0002   0.0002   0.0002   0.0001   0.0001   0.0001   0.00   46.5
2022/05/26 02:32:00.000   3337519.6000   1742282.5901   5131459.3804   1  39   0.0002   0.0002   0.0002   0.0001   0.0001   0.0001   0.00   49.4
2022/05/26 02:32:30.000   3337519.6000   1742282.5901   5131459.3804   1  39   0.0002   0.0002   0.0002   0.0001   0.0001   0.0001   0.00   52.3
2022/05/26 02:33:00.000   3337519.6000   1742282.5901   5131459.3804   1  38   0.0002   0.0002   0.0002   0.0001   0.0001   0.0001   0.00   50.5
2022/05/26 02:33:30.000   3337519.6000   1742282.5901   5131459.3804   1  38   0.0002   0.0002   0.0002   0.0001   0.0001   0.0001   0.00   23.8
2022/05/26 02:34:00.000   3337519.6000   1742282.5901   5131459.3804   1  38   0.0002   0.0002   0.0002   0.0001   0.0001   0.0001   0.00   25.3
2022/05/26 02:34:30.000   3337519.6000   1742282.5901   5131459.3804   1  38   0.0002   0.0002   0.0002   0.0001   0.0001   0.0001   0.00   26.7
2022/05/26 02:35:00.000   3337519.6000   1742282.5901   5131459.3804   1  38   0.0002   0.0002   0.0002   0.0001   0.0001   0.0001   0.00   28.8
2022/05/26 02:35:30.000   3337519.6000   1742282.5901   5131459.3804   1  38   0.0002   0.0002   0.0002   0.0001   0.0001   0.0001   0.00   31.0
2022/05/26 02:36:00.000   3337519.6000   1742282.5901   5131459.3804   1  38   0.0002   0.0002   0.0002   0.0001   0.0001   0.0001   0.00   32.3
2022/05/26 02:36:30.000   3337519.6000   1742282.5901   5131459.3804   1  38   0.0002   0.0002   0.0002   0.0001   0.0001   0.0001   0.00   34.2
2022/05/26 02:37:00.000   3337519.6000   1742282.5901   5131459.3804   1  38   0.0002   0.0002   0.0002   0.0001   0.0001   0.0001   0.00   36.8
2022/05/26 02:37:30.000   3337519.6000   1742282.5901   5131459.3804   1  38   0.0002   0.0002   0.0002   0.0001   0.0001   0.0001   0.00   38.3
2022/05/26 02:38:00.000   3337519.6000   1742282.5901   5131459.3804   1  38   0.0002   0.0002   0.0002   0.0001   0.0001   0.0001   0.00   40.2
2022/05/26 02:38:30.000   3337519.6000   1742282.5901   5131459.3804   1  38   0.0002   0.0002   0.0002   0.0001   0.0001   0.0001   0.00   43.5
2022/05/26 02:39:00.000   3337519.6000   1742282.5901   5131459.3804   1  38   0.0002   0.0002   0.0002   0.0001   0.0001   0.0001   0.00   45.8
2022/05/26 02:39:30.000   3337519.6000   1742282.5901   5131459.3804   1  38   0.0002   0.0002   0.0002   0.0001   0.0001   0.0001   0.00   48.3
2022/05/26 02:40:00.000   3337519.6000   1742282.5901   5131459.3804   1  38   0.0002   0.0002   0.0002   0.0001   0.0001   0.0001   0.00   51.0
2022/05/26 02:40:30.000   3337519.6000   1742282.5901   5131459.3804   1  37   0.0002   0.0002   0.0002   0.0001   0.0001   0.0001   0.00   53.4
2022/05/26 02:41:00.000   3337519.6000   1742282.5901   5131459.3804   1  37   0.0002   0.0002   0.0002   0.0001   0.0001   0.0001   0.00   55.0
2022/05/26 02:41:30.000   3337519.6000   1742282.5901   5131459.3804   1  37   0.0002   0.0002   0.0002   0.0001   0.0001   0.0001   0.00   58.0
2022/05/26 02:42:00.000   3337519.6000   1742282.5901   5131459.3804   1  37   0.0002   0.0002   0.0002   0.0001   0.0001   0.0001   0.00   61.3
2022/05/26 02:42:30.000   3337519.6000   1742282.5901   5131459.3804   1  37   0.0002   0.0002   0.0002   0.0001   0.0001   0.0001   0.00   64.7
2022/05/26 02:43:00.000   3337519.6000   1742282.5901   5131459.3804   1  37   0.0002   0.0002   0.0002   0.0001   0.0001   0.0001   0.00   68.6
2022/05/26 02:43:30.000   3337519.6000   1742282.5901   5131459.3804   1  37   0.0002   0.0002   0.0002   0.0001   0.0001   0.0001   0.00   73.1
2022/05/26 02:44:00.000   3337519.6000   1742282.5901   5131459.3804   1  38   0.0002   0.0002   0.0002   0.0001   0.0001   0.0001   0.00   77.7
2022/05/26 02:44:30.000   3337519.6000   1742282.5901   5131459.3804   1  37   0.0002   0.0002   0.0002   0.0001   0.0001   0.0001   0.00   83.0
2022/05/26 02:45:00.000   3337519.6000   1742282.5901   5131459.3804   1  37   0.0002   0.0002   0.0002   0.0001   0.0001   0.0001   0.00   87.0
2022/05/26 02:45:30.000   3337519.6000   1742282.5901   5131459.3804   1  37   0.0002   0.0002   0.0002   0.0001   0.0001   0.0001   0.00   89.6
2022/05/26 02:46:00.000   3337519.6000   1742282.5901   5131459.3804   1  37   0.0002   0.0002   0.0002   0.0001   0.0001   0.0001   0.00   94.7
2022/05/26 02:46:30.000   3337519.6000   1742282.5901   5131459.3804   1  37   0.0002   0.0002   0.0002   0.0001   0.0001   0.0001   0.00   99.9
2022/05/26 02:47:00.000   3337519.6000   1742282.5901   5131459.3804   1  37   0.0002   0.0002   0.0002   0.0001   0.0001   0.0001   0.00  106.1
2022/05/26 02:47:30.000   3337519.6000   1742282.5901   5131459.3804   1  37   0.0002   0.0002   0.0002   0.0001   0.0001   0.0001   0.00  112.6
2022/05/26 02:48:00.000   3337519.6000   1742282.5901   5131459.3804   1  36   0.0002   0.0002   0.0002   0.0001   0.0001   0.0001   0.00  120.0
2022/05/26 02:48:30.000   3337519.6000   1742282.5901   5131459.3804   1  36   0.0002   0.0002   0.0002   0.0001   0.0001   0.0001   0.00  126.6
2022/05/26 02:49:00.000   3337519.6000   1742282.5901   5131459.3804   1  37   0.0002   0.0002   0.0002   0.0001   0.0001   0.0001   0.00  132.6
2022/05/26 02:49:30.000   3337519.6000   1742282.5901   5131459.3804   1  37   0.0002   0.0002   0.0002   0.0001   0.0001   0.0001   0.00  137.8
2022/05/26 02:50:00.000   3337519.6000   1742282.5901   5131459.3804   1  38   0.0002   0.0002   0.0002   0.0001   0.0001   0.0001   0.00  142.5
2022/05/26 02:50:30.000   3337519.6000   1742282.5901   5131459.3804   1  38   0.0002   0.0002   0.0002   0.0001   0.0001   0.0001   0.00  145.2
2022/05/26 02:51:00.000   3337519.6000   1742282.5901   5131459.3804   1  39   0.0002   0.0002   0.0002   0.0001   0.0001   0.0001   0.00    6.4
2022/05/26 02:51:30.000   3337519.6000   1742282.5901   5131459.3804   1  39   0.0002   0.0002   0.0002   0.0001   0.0001   0.0001   0.00   12.2
2022/05/26 02:52:00.000   3337519.6000   1742282.5901   5131459.3804   1  39   0.0002   0.0002   0.0002   0.0001   0.0001   0.0001   0.00   17.7
2022/05/26 02:52:30.000   3337519.6000   1742282.5901   5131459.3804   1  39   0.0002   0.0002   0.0002   0.0001   0.0001   0.0001   0.00   24.3
2022/05/26 02:53:00.000   3337519.6000   1742282.5901   5131459.3804   1  39   0.0002   0.0002   0.0002   0.0001   0.0001   0.0001   0.00   30.4
2022/05/26 02:53:30.000   3337519.6000   1742282.5901   5131459.3804   1  39   0.0002   0.0002   0.0002   0.0001   0.0001   0.0001   0.00   36.3
2022/05/26 02:54:00.000   3337519.6000   1742282.5901   5131459.3804   1  39   0.0002   0.0002   0.0002   0.0001   0.0001   0.0001   0.00   42.8
2022/05/26 02:54:30.000   3337519.6000   1742282.5901   5131459.3804   1  39   0.0002   0.0002   0.0002   0.0001   0.0001   0.0001   0.00   49.3
2022/05/26 02:55:00.000   3337519.6000   1742282.5901   5131459.3804   1  39   0.0002   0.0002   0.0002   0.0001   0.0001   0.0001   0.00   55.4
2022/05/26 02:55:30.000   3337519.6000   1742282.5901   5131459.3804   1  39   0.0002   0.0002   0.0002   0.0001   0.0001   0.0001   0.00   62.4
2022/05/26 02:56:00.000   3337519.6000   1742282.5901   5131459.3804   1  39   0.0002   0.0002   0.0002   0.0001   0.0001   0.0001   0.00   70.1
2022/05/26 02:56:30.000   3337519.6000   1742282.5901   5131459.3804   1  39   0.0002   0.0002   0.0002   0.0001   0.0001   0.0001   0.00   76.4
2022/05/26 02:57:00.000   3337519.6000   1742282.5901   5131459.3804   1  39   0.0002   0.0002   0.0002   0.0001   0.0001   0.0001   0.00   81.5
2022/05/26 02:57:30.000   3337519.6000   1742282.5901   5131459.3804   1  39   0.0002   0.0002   0.0002   0.0001   0.0001   0.0001   0.00   87.0
2022/05/26 02:58:00.000   3337519.6000   1742282.5901   5131459.3804   1  39   0.0002   0.0002   0.0002   0.0001   0.0001   0.0001   0.00   92.4
2022/05/26 02:58:30.000   3337519.6000   1742282.5901   5131459.3804   1  39   0.0002   0.0002   0.0002   0.0001   0.0001   0.0001   0.00   99.7
2022/05/26 02:59:00.000   3337519.6000   1742282.5901   5131459.3804   1  39   0.0002   0.0002   0.0002   0.0001   0.0001   0.0001   0.00  105.5
2022/05/26 02:59:30.000   3337519.6000   1742282.5901   5131459.3804   1  40   0.0002   0.0002   0.0002   0.0001   0.0001   0.0001   0.00  112.9
2022/05/26 03:00:00.000   3337519.6000   1742282.5901   5131459.3804   1  40   0.0002   0.0002   0.0002   0.0001   0.0001   0.0001   0.00  119.5
2022/05/26 03:00:30.000   3337519.6000   1742282.5901   5131459.3804   1  40   0.0002   0.0002   0.0002   0.0001   0.0001   0.0001   0.00  125.9
2022/05/26 03:01:00.000   3337519.6000   1742282.5901   5131459.3804   1  40   0.0002   0.0002   0.0002   0.0001   0.0001   0.0001   0.00  133.8
2022/05/26 03:01:30.000   3337519.6000   1742282.5901   5131459.3804   1  40   0.0002   0.0002   0.0002   0.0001   0.0001   0.0001   0.00  142.3
2022/05/26 03:02:00.000   3337519.6000   1742282.5901   5131459.3804   1  40   0.0002   0.0002   0.0002   0.0001   0.0001   0.0001   0.00  147.6
2022/05/26 03:02:30.000   3337519.6000   1742282.5901   5131459.3804   1  40   0.0002   0.0002   0.0002   0.0001   0.0001   0.0001   0.00  156.3
2022/05/26 03:03:00.000   3337519.6000   1742282.5901   5131459.3804   1  40   0.0002   0.0002   0.0002   0.0001   0.0001   0.0001   0.00  166.1
2022/05/26 03:03:30.000   3337519.6000   1742282.5901   5131459.3804   1  40   0.0002   0.0002   0.0002   0.0001   0.0001   0.0001   0.00  175.3
2022/05/26 03:04:00.000   3337519.6000   1742282.5901   5131459.3804   1  40   0.0002   0.0002   0.0002   0.0001   0.0001   0.0001   0.00  185.1
2022/05/26 03:04:30.000   3337519.6000   1742282.5901   5131459.3804   1  40   0.0002   0.0002   0.0002   0.0001   0.0001   0.0001   0.00  193.5
2022/05/26 03:05:00.000   3337519.6000   1742282.5901   5131459.3804   1  40   0.0002   0.0002   0.0002   0.0001   0.0001   0.0001   0.00  199.9
2022/05/26 03:05:30.000   3337519.6000   1742282.5901   5131459.3804   1  40   0.0002   0.0002   0.0002   0.0001   0.0001   0.0001   0.00  208.1
2022/05/26 03:06:00.000   3337519.6000   1742282.5901   5131459.3804   1  40   0.0002   0.0002   0.0002   0.0001   0.0001   0.0001   0.00  216.2
2022/05/26 03:06:30.000   3337519.6000   1742282.5901   5131459.3804   1  41   0.0002   0.0002   0.0002   0.0001   0.0001   0.0001   0.00  221.0
2022/05/26 03:07:00.000   3337519.6000   1742282.5901   5131459.3804   1  41   0.0002   0.0002   0.0002   0.0001   0.0001   0.0001   0.00  224.9
2022/05/26 03:07:30.000   3337519.6000   1742282.5901   5131459.3804   1  41   0.0002   0.0002   0.0002   0.0001   0.0001   0.0001   0.00  230.4
2022/05/26 03:08:00.000   3337519.6000   1742282.5901   5131459.3804   1  41   0.0002   0.0002   0.0002   0.0001   0.0001   0.0001   0.00  236.1
2022/05/26 03:08:30.000   3337519.6000   1742282.5901   5131459.3804   1  42   0.0002   0.0002   0.0002   0.0001   0.0001   0.0001   0.00  241.1
2022/05/26 03:09:00.000   3337519.6000   1742282.5901   5131459.3804   1  42   0.0002   0.0002   0.0002   0.0001   0.0001   0.0001   0.00  248.5
2022/05/26 03:09:30.000   3337519.6000   1742282.5901   5131459.3804   1  42   0.0002   0.0002   0.0002   0.0001   0.0001   0.0001   0.00  255.8
2022/05/26 03:10:00.000   3337519.6000   1742282.5901   5131459.3804   1  42   0.0002   0.0002   0.0002   0.0001   0.0001   0.0001   0.00  260.6
2022/05/26 03:10:30.000   3337519.6000   1742282.5901   5131459.3804   1  42   0.0002   0.0002   0.0002   0.0001   0.0001   0.0001   0.00  267.3
2022/05/26 03:11:00.000   3337519.6000   1742282.5901   5131459.3804   1  42   0.0002   0.0002   0.0002   0.0001   0.0001   0.0001   0.00  270.4
2022/05/26 03:11:30.000   3337519.6000   1742282.5901   5131459.3804   1  42   0.0002   0.0002   0.0002   0.0001   0.0001   0.0001   0.00  274.6
2022/05/26 03:12:00.000   3337519.6000   1742282.5901   5131459.3804   1  42   0.0002   0.0002   0.0002   0.0001   0.0001   0.0001   0.00  282.2
2022/05/26 03:12:30.000   3337519.6000   1742282.5901   5131459.3804   1  42   0.0002   0.0002   0.0002   0.0001   0.0001   0.0001   0.00  290.5
2022/05/26 03:13:00.000   3337519.6000   1742282.5901   5131459.3804   1  43   0.0002   0.0002   0.0002   0.0001   0.0001   0.0001   0.00  300.5
2022/05/26 03:13:30.000   3337519.6000   1742282.5901   5131459.3804   1  43   0.0002   0.0002   0.0002   0.0001   0.0001   0.0001   0.00  307.3
2022/05/26 03:14:00.000   3337519.6000   1742282.5901   5131459.3804   1  43   0.0002   0.0002   0.0002   0.0001   0.0001   0.0001   0.00  310.6
2022/05/26 03:14:30.000   3337519.6000   1742282.5901   5131459.3804   1  43   0.0002   0.0002   0.0002   0.0001   0.0001   0.0001   0.00  313.4
2022/05/26 03:15:00.000   3337519.6000   1742282.5901   5131459.3804   1  43   0.0002   0.0002   0.0002   0.0001   0.0001   0.0001   0.00  318.8
2022/05/26 03:15:30.000   3337519.6000   1742282.5901   5131459.3804   1  43   0.0002   0.0002   0.0002   0.0001   0.0001   0.0001   0.00  324.5
2022/05/26 03:16:00.000   3337519.6000   1742282.5901   5131459.3804   1  42   0.0002   0.0002   0.0002   0.0001   0.0001   0.0001   0.00  330.2
2022/05/26 03:16:30.000   3337519.6000   1742282.5901   5131459.3804   1  42   0.0002   0.0002   0.0002   0.0001   0.0001   0.0001   0.00  336.3
2022/05/26 03:17:00.000   3337519.6000   1742282.5901   5131459.3804   1  43   0.0002   0.0002   0.0002   0.0001   0.0001   0.0001   0.00  344.0
2022/05/26 03:17:30.000   3337519.6000   1742282.5901   5131459.3804   1  43   0.0002   0.0002   0.0002   0.0001   0.0001   0.0001   0.00  354.5
2022/05/26 03:18:00.000   3337519.6000   1742282.5901   5131459.3804   1  43   0.0002   0.0002   0.0002   0.0001   0.0001   0.0001   0.00  362.5
2022/05/26 03:18:30.000   3337519.6000   1742282.5901   5131459.3804   1  43   0.0002   0.0002   0.0002   0.0001   0.0001   0.0001   0.00  377.5
2022/05/26 03:19:00.000   3337519.6000   1742282.5901   5131459.3804   1  43   0.0002   0.0002   0.0002   0.0001   0.0001   0.0001   0.00  391.0
2022/05/26 03:19:30.000   3337519.6000   1742282.5901   5131459.3804   1  43   0.0002   0.0002   0.0002   0.0001   0.0001   0.0001   0.00  407.7
