% program   : RTKPOST ver.demo5 b34g
% inp file  : E:\YandexDisk\!¡Õ“”\5 ÒÂÏÂÒÚ\Ã—√√Œ\À‡·‡ Ì‡ ˝ÍÁ‡ÏÂÌ\2024\MNSK00BLR_R_20241460000_01D_30S_MO.rnx
% inp file  : E:\YandexDisk\!¡Õ“”\5 ÒÂÏÂÒÚ\Ã—√√Œ\À‡·‡ Ì‡ ˝ÍÁ‡ÏÂÌ\2024\MNKW00BLR_R_20241460000_01D_30S_MO.rnx
% inp file  : E:\YandexDisk\!¡Õ“”\5 ÒÂÏÂÒÚ\Ã—√√Œ\À‡·‡ Ì‡ ˝ÍÁ‡ÏÂÌ\2024\MNKW00BLR_R_20241460000_01D_CN.rnx
% inp file  : E:\YandexDisk\!¡Õ“”\5 ÒÂÏÂÒÚ\Ã—√√Œ\À‡·‡ Ì‡ ˝ÍÁ‡ÏÂÌ\2024\MNKW00BLR_R_20241460000_01D_EN.rnx
% inp file  : E:\YandexDisk\!¡Õ“”\5 ÒÂÏÂÒÚ\Ã—√√Œ\À‡·‡ Ì‡ ˝ÍÁ‡ÏÂÌ\2024\MNKW00BLR_R_20241460000_01D_GN.rnx
% inp file  : E:\YandexDisk\!¡Õ“”\5 ÒÂÏÂÒÚ\Ã—√√Œ\À‡·‡ Ì‡ ˝ÍÁ‡ÏÂÌ\2024\MNKW00BLR_R_20241460000_01D_RN.rnx
% obs start : 2024/05/25 00:00:00.0 GPST (week2315 518400.0s)
% obs end   : 2024/05/25 23:59:30.0 GPST (week2315 604770.0s)
% pos mode  : Static
% freqs     : L1+L2/E5b
% solution  : Combined-Phase Reset
% elev mask : 5.0 deg
% dynamics  : on
% tidecorr  : off
% ionos opt : Broadcast
% tropo opt : Saastamoinen
% ephemeris : Broadcast
% navi sys  : GPS GLONASS Galileo BDS
% amb res   : Continuous
% amb glo   : Fix and Hold
% val thres : 3.0
% antenna1  :                       ( 0.0000  0.0000  0.0000)
% antenna2  :                       ( 0.0000  0.0000  0.0000)
% ref pos   :  3337518.3177   1742285.6146   5131459.2122
%
% (x/y/z-ecef=WGS84,Q=1:fix,2:float,3:sbas,4:dgps,5:single,6:ppp,ns=# of satellites)
%  GPST                      x-ecef(m)      y-ecef(m)      z-ecef(m)   Q  ns   sdx(m)   sdy(m)   sdz(m)  sdxy(m)  sdyz(m)  sdzx(m) age(s)  ratio
2024/05/25 00:00:00.000   3337519.6008   1742282.5898   5131459.3792   4   3   0.0003   0.0003   0.0003   0.0001   0.0001   0.0002   0.00    0.0
2024/05/25 00:00:30.000   3337519.6006   1742282.5899   5131459.3792   1   4   0.0003   0.0003   0.0003   0.0001   0.0001   0.0002   0.00   14.0
2024/05/25 00:01:00.000   3337519.6006   1742282.5899   5131459.3792   1   4   0.0003   0.0003   0.0003   0.0001   0.0001   0.0002   0.00   14.1
2024/05/25 00:01:30.000   3337519.6008   1742282.5898   5131459.3792   4   3   0.0003   0.0003   0.0003   0.0001   0.0001   0.0002   0.00    0.0
2024/05/25 00:02:00.000   3337519.6008   1742282.5898   5131459.3792   4   3   0.0003   0.0003   0.0003   0.0001   0.0001   0.0002   0.00    0.0
2024/05/25 00:02:30.000   3337519.6008   1742282.5898   5131459.3792   4   3   0.0003   0.0003   0.0003   0.0001   0.0001   0.0002   0.00    0.0
2024/05/25 00:03:00.000   3337519.6008   1742282.5898   5131459.3792   4   2   0.0003   0.0003   0.0003   0.0001   0.0001   0.0002   0.00    0.0
2024/05/25 00:03:30.000   3337519.6006   1742282.5899   5131459.3792   1   4   0.0003   0.0003   0.0003   0.0001   0.0001   0.0002   0.00   12.8
2024/05/25 00:04:00.000   3337519.6008   1742282.5898   5131459.3792   4   3   0.0003   0.0003   0.0003   0.0001   0.0001   0.0002   0.00    0.0
2024/05/25 00:04:30.000   3337519.6008   1742282.5898   5131459.3792   4   3   0.0003   0.0003   0.0003   0.0001   0.0001   0.0002   0.00    0.0
2024/05/25 00:05:00.000   3337519.6008   1742282.5898   5131459.3792   4   3   0.0003   0.0003   0.0003   0.0001   0.0001   0.0002   0.00    0.0
2024/05/25 00:05:30.000   3337519.6005   1742282.5899   5131459.3792   1   4   0.0003   0.0003   0.0003   0.0001   0.0001   0.0002   0.00   36.3
2024/05/25 00:06:00.000   3337519.6005   1742282.5899   5131459.3792   1   4   0.0003   0.0003   0.0003   0.0001   0.0001   0.0002   0.00   36.1
2024/05/25 00:06:30.000   3337519.6008   1742282.5898   5131459.3792   4   3   0.0003   0.0003   0.0003   0.0001   0.0001   0.0002   0.00    0.0
2024/05/25 00:07:00.000   3337519.6005   1742282.5899   5131459.3792   1   4   0.0003   0.0003   0.0003   0.0001   0.0001   0.0002   0.00  165.2
2024/05/25 00:07:30.000   3337519.6008   1742282.5898   5131459.3792   4   3   0.0003   0.0003   0.0003   0.0001   0.0001   0.0002   0.00    0.0
2024/05/25 00:08:00.000   3337519.6008   1742282.5898   5131459.3792   4   3   0.0003   0.0003   0.0003   0.0001   0.0001   0.0002   0.00    0.0
2024/05/25 00:08:30.000   3337519.6008   1742282.5898   5131459.3792   4   2   0.0003   0.0003   0.0003   0.0001   0.0001   0.0002   0.00    0.0
2024/05/25 00:09:00.000   3337519.6008   1742282.5898   5131459.3792   4   2   0.0003   0.0003   0.0003   0.0001   0.0001   0.0002   0.00    0.0
2024/05/25 00:09:30.000   3337519.6008   1742282.5898   5131459.3792   4   3   0.0003   0.0003   0.0003   0.0001   0.0001   0.0002   0.00    0.0
2024/05/25 00:10:00.000   3337519.6008   1742282.5898   5131459.3792   4   0   0.0003   0.0003   0.0003   0.0001   0.0001   0.0002   0.00    0.0
2024/05/25 00:10:30.000   3337519.6008   1742282.5898   5131459.3792   4   3   0.0003   0.0003   0.0003   0.0001   0.0001   0.0002   0.00    0.0
2024/05/25 00:11:00.000   3337519.6008   1742282.5898   5131459.3792   4   2   0.0003   0.0003   0.0003   0.0001   0.0001   0.0002   0.00    0.0
2024/05/25 00:11:30.000   3337519.6008   1742282.5898   5131459.3792   4   0   0.0003   0.0003   0.0003   0.0001   0.0001   0.0002   0.00    0.0
2024/05/25 00:12:00.000   3337519.6008   1742282.5898   5131459.3792   4   3   0.0003   0.0003   0.0003   0.0001   0.0001   0.0002   0.00    0.0
2024/05/25 00:12:30.000   3337519.6008   1742282.5898   5131459.3792   4   3   0.0003   0.0003   0.0003   0.0001   0.0001   0.0002   0.00    0.0
2024/05/25 00:13:00.000   3337519.6008   1742282.5898   5131459.3792   4   3   0.0003   0.0003   0.0003   0.0001   0.0001   0.0002   0.00    0.0
2024/05/25 00:13:30.000   3337519.6008   1742282.5898   5131459.3792   4   3   0.0003   0.0003   0.0003   0.0001   0.0001   0.0002   0.00    0.0
2024/05/25 00:14:00.000   3337519.6008   1742282.5898   5131459.3792   4   2   0.0003   0.0003   0.0003   0.0001   0.0001   0.0002   0.00    0.0
2024/05/25 00:14:30.000   3337519.6008   1742282.5898   5131459.3792   4   2   0.0003   0.0003   0.0003   0.0001   0.0001   0.0002   0.00    0.0
2024/05/25 00:15:00.000   3337519.6008   1742282.5898   5131459.3792   4   3   0.0003   0.0003   0.0003   0.0001   0.0001   0.0002   0.00    0.0
2024/05/25 00:15:30.000   3337519.6008   1742282.5898   5131459.3792   4   3   0.0003   0.0003   0.0003   0.0001   0.0001   0.0002   0.00    0.0
2024/05/25 00:16:00.000   3337519.6008   1742282.5898   5131459.3792   4   3   0.0003   0.0003   0.0003   0.0001   0.0001   0.0002   0.00    0.0
2024/05/25 00:16:30.000   3337519.6008   1742282.5898   5131459.3792   4   3   0.0003   0.0003   0.0003   0.0001   0.0001   0.0002   0.00    0.0
2024/05/25 00:17:00.000   3337519.6008   1742282.5898   5131459.3792   4   3   0.0003   0.0003   0.0003   0.0001   0.0001   0.0002   0.00    0.0
2024/05/25 00:17:30.000   3337519.6008   1742282.5898   5131459.3792   4   3   0.0003   0.0003   0.0003   0.0001   0.0001   0.0002   0.00    0.0
2024/05/25 00:18:00.000   3337519.6008   1742282.5898   5131459.3792   4   3   0.0003   0.0003   0.0003   0.0001   0.0001   0.0002   0.00    0.0
2024/05/25 00:18:30.000   3337519.6008   1742282.5898   5131459.3792   4   3   0.0003   0.0003   0.0003   0.0001   0.0001   0.0002   0.00    0.0
2024/05/25 00:19:00.000   3337519.6008   1742282.5898   5131459.3792   4   3   0.0003   0.0003   0.0003   0.0001   0.0001   0.0002   0.00    0.0
2024/05/25 00:19:30.000   3337519.6008   1742282.5898   5131459.3792   4   3   0.0003   0.0003   0.0003   0.0001   0.0001   0.0002   0.00    0.0
2024/05/25 00:20:00.000   3337519.6008   1742282.5898   5131459.3792   4   3   0.0003   0.0003   0.0003   0.0001   0.0001   0.0002   0.00    0.0
2024/05/25 00:20:30.000   3337519.6008   1742282.5898   5131459.3792   4   3   0.0003   0.0003   0.0003   0.0001   0.0001   0.0002   0.00    0.0
2024/05/25 00:21:00.000   3337519.6008   1742282.5898   5131459.3792   4   3   0.0003   0.0003   0.0003   0.0001   0.0001   0.0002   0.00    0.0
2024/05/25 00:21:30.000   3337519.6008   1742282.5898   5131459.3792   4   3   0.0003   0.0003   0.0003   0.0001   0.0001   0.0002   0.00    0.0
2024/05/25 00:22:00.000   3337519.6008   1742282.5898   5131459.3792   4   3   0.0003   0.0003   0.0003   0.0001   0.0001   0.0002   0.00    0.0
2024/05/25 00:22:30.000   3337519.6008   1742282.5898   5131459.3792   4   3   0.0003   0.0003   0.0003   0.0001   0.0001   0.0002   0.00    0.0
2024/05/25 00:23:00.000   3337519.6008   1742282.5898   5131459.3792   4   3   0.0003   0.0003   0.0003   0.0001   0.0001   0.0002   0.00    0.0
2024/05/25 00:23:30.000   3337519.6008   1742282.5898   5131459.3792   4   3   0.0003   0.0003   0.0003   0.0001   0.0001   0.0002   0.00    0.0
2024/05/25 00:24:00.000   3337519.6008   1742282.5898   5131459.3792   4   3   0.0003   0.0003   0.0003   0.0001   0.0001   0.0002   0.00    0.0
2024/05/25 00:24:30.000   3337519.6008   1742282.5898   5131459.3792   4   3   0.0003   0.0003   0.0003   0.0001   0.0001   0.0002   0.00    0.0
2024/05/25 00:25:00.000   3337519.6008   1742282.5898   5131459.3792   4   3   0.0003   0.0003   0.0003   0.0001   0.0001   0.0002   0.00    0.0
2024/05/25 00:25:30.000   3337519.6008   1742282.5898   5131459.3792   4   3   0.0003   0.0003   0.0003   0.0001   0.0001   0.0002   0.00    0.0
2024/05/25 00:26:00.000   3337519.6008   1742282.5898   5131459.3792   4   3   0.0003   0.0003   0.0003   0.0001   0.0001   0.0002   0.00    0.0
2024/05/25 00:26:30.000   3337519.6008   1742282.5898   5131459.3792   4   3   0.0003   0.0003   0.0003   0.0001   0.0001   0.0002   0.00    0.0
2024/05/25 00:27:00.000   3337519.6008   1742282.5898   5131459.3792   4   3   0.0003   0.0003   0.0003   0.0001   0.0001   0.0002   0.00    0.0
2024/05/25 00:27:30.000   3337519.6008   1742282.5898   5131459.3792   4   3   0.0003   0.0003   0.0003   0.0001   0.0001   0.0002   0.00    0.0
2024/05/25 00:28:00.000   3337519.6008   1742282.5898   5131459.3792   4   3   0.0003   0.0003   0.0003   0.0001   0.0001   0.0002   0.00    0.0
2024/05/25 00:28:30.000   3337519.6008   1742282.5898   5131459.3792   4   3   0.0003   0.0003   0.0003   0.0001   0.0001   0.0002   0.00    0.0
2024/05/25 00:29:00.000   3337519.6008   1742282.5898   5131459.3792   4   3   0.0003   0.0003   0.0003   0.0001   0.0001   0.0002   0.00    0.0
2024/05/25 00:29:30.000   3337519.6008   1742282.5898   5131459.3792   4   3   0.0003   0.0003   0.0003   0.0001   0.0001   0.0002   0.00    0.0
2024/05/25 00:30:00.000   3337519.6008   1742282.5898   5131459.3792   4   3   0.0003   0.0003   0.0003   0.0001   0.0001   0.0002   0.00    0.0
2024/05/25 00:30:30.000   3337519.6008   1742282.5898   5131459.3792   4   3   0.0003   0.0003   0.0003   0.0001   0.0001   0.0002   0.00    0.0
2024/05/25 00:31:00.000   3337519.6008   1742282.5898   5131459.3792   4   3   0.0003   0.0003   0.0003   0.0001   0.0001   0.0002   0.00    0.0
2024/05/25 00:31:30.000   3337519.6008   1742282.5898   5131459.3792   4   3   0.0003   0.0003   0.0003   0.0001   0.0001   0.0002   0.00    0.0
2024/05/25 00:32:00.000   3337519.6008   1742282.5898   5131459.3792   4   3   0.0003   0.0003   0.0003   0.0001   0.0001   0.0002   0.00    0.0
2024/05/25 00:32:30.000   3337519.6008   1742282.5898   5131459.3792   4   3   0.0003   0.0003   0.0003   0.0001   0.0001   0.0002   0.00    0.0
2024/05/25 00:33:00.000   3337519.6008   1742282.5898   5131459.3792   4   3   0.0003   0.0003   0.0003   0.0001   0.0001   0.0002   0.00    0.0
2024/05/25 00:33:30.000   3337519.6008   1742282.5898   5131459.3792   4   2   0.0003   0.0003   0.0003   0.0001   0.0001   0.0002   0.00    0.0
2024/05/25 00:34:00.000   3337519.6008   1742282.5898   5131459.3792   4   2   0.0003   0.0003   0.0003   0.0001   0.0001   0.0002   0.00    0.0
2024/05/25 00:34:30.000   3337519.6008   1742282.5898   5131459.3792   4   3   0.0003   0.0003   0.0003   0.0001   0.0001   0.0002   0.00    0.0
2024/05/25 00:35:00.000   3337519.6008   1742282.5898   5131459.3792   4   3   0.0003   0.0003   0.0003   0.0001   0.0001   0.0002   0.00    0.0
2024/05/25 00:35:30.000   3337519.6008   1742282.5898   5131459.3792   4   3   0.0003   0.0003   0.0003   0.0001   0.0001   0.0002   0.00    0.0
2024/05/25 00:36:00.000   3337519.6008   1742282.5898   5131459.3792   4   3   0.0003   0.0003   0.0003   0.0001   0.0001   0.0002   0.00    0.0
2024/05/25 00:36:30.000   3337519.6008   1742282.5898   5131459.3792   4   3   0.0003   0.0003   0.0003   0.0001   0.0001   0.0002   0.00    0.0
2024/05/25 00:37:00.000   3337519.6008   1742282.5898   5131459.3792   4   3   0.0003   0.0003   0.0003   0.0001   0.0001   0.0002   0.00    0.0
2024/05/25 00:37:30.000   3337519.6008   1742282.5898   5131459.3792   4   3   0.0003   0.0003   0.0003   0.0001   0.0001   0.0002   0.00    0.0
2024/05/25 00:38:00.000   3337519.6008   1742282.5898   5131459.3792   4   3   0.0003   0.0003   0.0003   0.0001   0.0001   0.0002   0.00    0.0
2024/05/25 00:38:30.000   3337519.6008   1742282.5898   5131459.3792   4   3   0.0003   0.0003   0.0003   0.0001   0.0001   0.0002   0.00    0.0
2024/05/25 00:39:00.000   3337519.6008   1742282.5898   5131459.3792   4   3   0.0003   0.0003   0.0003   0.0001   0.0001   0.0002   0.00    0.0
2024/05/25 00:39:30.000   3337519.6008   1742282.5898   5131459.3792   4   3   0.0003   0.0003   0.0003   0.0001   0.0001   0.0002   0.00    0.0
2024/05/25 00:40:00.000   3337519.6008   1742282.5898   5131459.3792   4   3   0.0003   0.0003   0.0003   0.0001   0.0001   0.0002   0.00    0.0
2024/05/25 00:40:30.000   3337519.6008   1742282.5898   5131459.3792   4   3   0.0003   0.0003   0.0003   0.0001   0.0001   0.0002   0.00    0.0
2024/05/25 00:41:00.000   3337519.6008   1742282.5898   5131459.3792   4   3   0.0003   0.0003   0.0003   0.0001   0.0001   0.0002   0.00    0.0
2024/05/25 00:41:30.000   3337519.6008   1742282.5898   5131459.3792   4   3   0.0003   0.0003   0.0003   0.0001   0.0001   0.0002   0.00    0.0
2024/05/25 00:42:00.000   3337519.6008   1742282.5898   5131459.3792   4   3   0.0003   0.0003   0.0003   0.0001   0.0001   0.0002   0.00    0.0
2024/05/25 00:42:30.000   3337519.6008   1742282.5898   5131459.3792   4   3   0.0003   0.0003   0.0003   0.0001   0.0001   0.0002   0.00    0.0
2024/05/25 00:43:00.000   3337519.6008   1742282.5898   5131459.3792   4   3   0.0003   0.0003   0.0003   0.0001   0.0001   0.0002   0.00    0.0
2024/05/25 00:43:30.000   3337519.6008   1742282.5898   5131459.3792   4   2   0.0003   0.0003   0.0003   0.0001   0.0001   0.0002   0.00    0.0
2024/05/25 00:44:00.000   3337519.6008   1742282.5898   5131459.3792   4   3   0.0003   0.0003   0.0003   0.0001   0.0001   0.0002   0.00    0.0
2024/05/25 00:44:30.000   3337519.6008   1742282.5898   5131459.3792   4   3   0.0003   0.0003   0.0003   0.0001   0.0001   0.0002   0.00    0.0
2024/05/25 00:45:00.000   3337519.6008   1742282.5898   5131459.3792   4   3   0.0003   0.0003   0.0003   0.0001   0.0001   0.0002   0.00    0.0
2024/05/25 00:45:30.000   3337519.6008   1742282.5898   5131459.3792   4   3   0.0003   0.0003   0.0003   0.0001   0.0001   0.0002   0.00    0.0
2024/05/25 00:46:00.000   3337519.6008   1742282.5898   5131459.3792   4   3   0.0003   0.0003   0.0003   0.0001   0.0001   0.0002   0.00    0.0
2024/05/25 00:46:30.000   3337519.6008   1742282.5898   5131459.3792   4   3   0.0003   0.0003   0.0003   0.0001   0.0001   0.0002   0.00    0.0
2024/05/25 00:47:00.000   3337519.6008   1742282.5898   5131459.3792   4   3   0.0003   0.0003   0.0003   0.0001   0.0001   0.0002   0.00    0.0
2024/05/25 00:47:30.000   3337519.6008   1742282.5898   5131459.3792   4   2   0.0003   0.0003   0.0003   0.0001   0.0001   0.0002   0.00    0.0
2024/05/25 00:48:00.000   3337519.6008   1742282.5898   5131459.3792   4   3   0.0003   0.0003   0.0003   0.0001   0.0001   0.0002   0.00    0.0
2024/05/25 00:48:30.000   3337519.6008   1742282.5898   5131459.3792   4   3   0.0003   0.0003   0.0003   0.0001   0.0001   0.0002   0.00    0.0
2024/05/25 00:49:00.000   3337519.6008   1742282.5898   5131459.3792   4   3   0.0003   0.0003   0.0003   0.0001   0.0001   0.0002   0.00    0.0
2024/05/25 00:49:30.000   3337519.6008   1742282.5898   5131459.3792   4   3   0.0003   0.0003   0.0003   0.0001   0.0001   0.0002   0.00    0.0
2024/05/25 00:50:00.000   3337519.6008   1742282.5898   5131459.3792   4   3   0.0003   0.0003   0.0003   0.0001   0.0001   0.0002   0.00    0.0
2024/05/25 00:50:30.000   3337519.6008   1742282.5898   5131459.3792   4   3   0.0003   0.0003   0.0003   0.0001   0.0001   0.0002   0.00    0.0
2024/05/25 00:51:00.000   3337519.6008   1742282.5898   5131459.3792   4   2   0.0003   0.0003   0.0003   0.0001   0.0001   0.0002   0.00    0.0
2024/05/25 00:51:30.000   3337519.6008   1742282.5898   5131459.3792   4   2   0.0003   0.0003   0.0003   0.0001   0.0001   0.0002   0.00    0.0
2024/05/25 00:52:00.000   3337519.6008   1742282.5898   5131459.3792   4   2   0.0003   0.0003   0.0003   0.0001   0.0001   0.0002   0.00    0.0
2024/05/25 00:52:30.000   3337519.6008   1742282.5898   5131459.3792   4   3   0.0003   0.0003   0.0003   0.0001   0.0001   0.0002   0.00    0.0
2024/05/25 00:53:00.000   3337519.6008   1742282.5898   5131459.3792   4   2   0.0003   0.0003   0.0003   0.0001   0.0001   0.0002   0.00    0.0
2024/05/25 00:53:30.000   3337519.6008   1742282.5898   5131459.3792   4   2   0.0003   0.0003   0.0003   0.0001   0.0001   0.0002   0.00    0.0
2024/05/25 00:54:00.000   3337519.6008   1742282.5898   5131459.3792   4   2   0.0003   0.0003   0.0003   0.0001   0.0001   0.0002   0.00    0.0
2024/05/25 00:54:30.000   3337519.6008   1742282.5898   5131459.3792   4   3   0.0003   0.0003   0.0003   0.0001   0.0001   0.0002   0.00    0.0
2024/05/25 00:55:00.000   3337519.6008   1742282.5898   5131459.3792   4   2   0.0003   0.0003   0.0003   0.0001   0.0001   0.0002   0.00    0.0
2024/05/25 00:55:30.000   3337519.6008   1742282.5898   5131459.3792   4   2   0.0003   0.0003   0.0003   0.0001   0.0001   0.0002   0.00    0.0
2024/05/25 00:56:00.000   3337519.6008   1742282.5898   5131459.3792   4   3   0.0003   0.0003   0.0003   0.0001   0.0001   0.0002   0.00    0.0
2024/05/25 00:56:30.000   3337519.6008   1742282.5898   5131459.3792   4   3   0.0003   0.0003   0.0003   0.0001   0.0001   0.0002   0.00    0.0
2024/05/25 00:57:00.000   3337519.6008   1742282.5898   5131459.3792   4   2   0.0003   0.0003   0.0003   0.0001   0.0001   0.0002   0.00    0.0
2024/05/25 00:57:30.000   3337519.6008   1742282.5898   5131459.3792   4   2   0.0003   0.0003   0.0003   0.0001   0.0001   0.0002   0.00    0.0
2024/05/25 00:58:00.000   3337519.6008   1742282.5898   5131459.3792   4   2   0.0003   0.0003   0.0003   0.0001   0.0001   0.0002   0.00    0.0
2024/05/25 00:58:30.000   3337519.6008   1742282.5898   5131459.3792   4   2   0.0003   0.0003   0.0003   0.0001   0.0001   0.0002   0.00    0.0
2024/05/25 00:59:00.000   3337519.6008   1742282.5898   5131459.3792   4   2   0.0003   0.0003   0.0003   0.0001   0.0001   0.0002   0.00    0.0
2024/05/25 00:59:30.000   3337519.6008   1742282.5898   5131459.3792   4   2   0.0003   0.0003   0.0003   0.0001   0.0001   0.0002   0.00    0.0
2024/05/25 01:00:00.000   3337519.6008   1742282.5898   5131459.3792   4   2   0.0003   0.0003   0.0003   0.0001   0.0001   0.0002   0.00    0.0
2024/05/25 01:00:30.000   3337519.6008   1742282.5898   5131459.3792   4   2   0.0003   0.0003   0.0003   0.0001   0.0001   0.0002   0.00    0.0
2024/05/25 01:01:00.000   3337519.6008   1742282.5898   5131459.3792   4   2   0.0003   0.0003   0.0003   0.0001   0.0001   0.0002   0.00    0.0
2024/05/25 01:01:30.000   3337519.6008   1742282.5898   5131459.3792   4   0   0.0003   0.0003   0.0003   0.0001   0.0001   0.0002   0.00    0.0
2024/05/25 01:02:00.000   3337519.6008   1742282.5898   5131459.3792   4   2   0.0003   0.0003   0.0003   0.0001   0.0001   0.0002   0.00    0.0
2024/05/25 01:02:30.000   3337519.6008   1742282.5898   5131459.3792   4   2   0.0003   0.0003   0.0003   0.0001   0.0001   0.0002   0.00    0.0
2024/05/25 01:03:00.000   3337519.6008   1742282.5898   5131459.3792   4   2   0.0003   0.0003   0.0003   0.0001   0.0001   0.0002   0.00    0.0
2024/05/25 01:03:30.000   3337519.6008   1742282.5898   5131459.3792   4   2   0.0003   0.0003   0.0003   0.0001   0.0001   0.0002   0.00    0.0
2024/05/25 01:04:00.000   3337519.6008   1742282.5898   5131459.3792   4   2   0.0003   0.0003   0.0003   0.0001   0.0001   0.0002   0.00    0.0
2024/05/25 01:04:30.000   3337519.6008   1742282.5898   5131459.3792   4   2   0.0003   0.0003   0.0003   0.0001   0.0001   0.0002   0.00    0.0
2024/05/25 01:05:00.000   3337519.6008   1742282.5898   5131459.3792   4   2   0.0003   0.0003   0.0003   0.0001   0.0001   0.0002   0.00    0.0
2024/05/25 01:05:30.000   3337519.6008   1742282.5898   5131459.3792   4   0   0.0003   0.0003   0.0003   0.0001   0.0001   0.0002   0.00    0.0
2024/05/25 01:06:00.000   3337519.6005   1742282.5900   5131459.3792   1  27   0.0003   0.0002   0.0003   0.0001   0.0001   0.0002   0.00  198.9
2024/05/25 01:06:30.000   3337519.6005   1742282.5900   5131459.3792   1  36   0.0003   0.0002   0.0003   0.0001   0.0001   0.0002   0.00  191.1
2024/05/25 01:07:00.000   3337519.6005   1742282.5900   5131459.3792   1  37   0.0003   0.0002   0.0003   0.0001   0.0001   0.0002   0.00  181.9
2024/05/25 01:07:30.000   3337519.6005   1742282.5900   5131459.3792   1  38   0.0003   0.0002   0.0003   0.0001   0.0001   0.0002   0.00  174.6
2024/05/25 01:08:00.000   3337519.6005   1742282.5900   5131459.3792   1  38   0.0003   0.0002   0.0003   0.0001   0.0001   0.0002   0.00  166.5
2024/05/25 01:08:30.000   3337519.6005   1742282.5900   5131459.3792   1  39   0.0003   0.0002   0.0003   0.0001   0.0001   0.0002   0.00  159.1
2024/05/25 01:09:00.000   3337519.6005   1742282.5900   5131459.3792   1  39   0.0003   0.0002   0.0003   0.0001   0.0001   0.0002   0.00  152.4
2024/05/25 01:09:30.000   3337519.6005   1742282.5900   5131459.3792   1  39   0.0003   0.0002   0.0003   0.0001   0.0001   0.0002   0.00  147.7
2024/05/25 01:10:00.000   3337519.6003   1742282.5900   5131459.3792   1  39   0.0003   0.0002   0.0003   0.0001   0.0001   0.0002   0.00   11.8
2024/05/25 01:10:30.000   3337519.6003   1742282.5900   5131459.3793   1  39   0.0003   0.0002   0.0003   0.0001   0.0001   0.0002   0.00   13.5
2024/05/25 01:11:00.000   3337519.6004   1742282.5900   5131459.3793   1  40   0.0003   0.0002   0.0003   0.0001   0.0001   0.0002   0.00   16.9
2024/05/25 01:11:30.000   3337519.6004   1742282.5900   5131459.3793   1  40   0.0003   0.0002   0.0003   0.0001   0.0001   0.0002   0.00   19.4
2024/05/25 01:12:00.000   3337519.6003   1742282.5900   5131459.3793   1  40   0.0003   0.0002   0.0003   0.0001   0.0001   0.0002   0.00   23.0
2024/05/25 01:12:30.000   3337519.6003   1742282.5900   5131459.3793   1  40   0.0003   0.0002   0.0003   0.0001   0.0001   0.0002   0.00   26.6
2024/05/25 01:13:00.000   3337519.6004   1742282.5900   5131459.3793   1  40   0.0003   0.0002   0.0003   0.0001   0.0001   0.0002   0.00   30.7
2024/05/25 01:13:30.000   3337519.6004   1742282.5900   5131459.3793   1  40   0.0003   0.0002   0.0003   0.0001   0.0001   0.0002   0.00   34.8
2024/05/25 01:14:00.000   3337519.6003   1742282.5900   5131459.3793   1  41   0.0003   0.0002   0.0003   0.0001   0.0001   0.0002   0.00   39.2
2024/05/25 01:14:30.000   3337519.6003   1742282.5900   5131459.3793   1  41   0.0003   0.0002   0.0003   0.0001   0.0001   0.0002   0.00   44.4
2024/05/25 01:15:00.000   3337519.6003   1742282.5900   5131459.3793   1  41   0.0003   0.0002   0.0003   0.0001   0.0001   0.0002   0.00   50.0
2024/05/25 01:15:30.000   3337519.6003   1742282.5900   5131459.3793   1  41   0.0003   0.0002   0.0003   0.0001   0.0001   0.0002   0.00   56.9
2024/05/25 01:16:00.000   3337519.6003   1742282.5900   5131459.3793   1  41   0.0003   0.0002   0.0003   0.0001   0.0001   0.0002   0.00   62.8
2024/05/25 01:16:30.000   3337519.6004   1742282.5900   5131459.3793   1  41   0.0003   0.0002   0.0003   0.0001   0.0001   0.0002   0.00   69.6
2024/05/25 01:17:00.000   3337519.6003   1742282.5900   5131459.3792   1  41   0.0003   0.0002   0.0003   0.0001   0.0001   0.0002   0.00   73.0
2024/05/25 01:17:30.000   3337519.6003   1742282.5900   5131459.3792   1  41   0.0003   0.0002   0.0003   0.0001   0.0001   0.0002   0.00   79.6
2024/05/25 01:18:00.000   3337519.6003   1742282.5900   5131459.3793   1  41   0.0003   0.0002   0.0003   0.0001   0.0001   0.0002   0.00   86.2
2024/05/25 01:18:30.000   3337519.6003   1742282.5900   5131459.3793   1  41   0.0003   0.0002   0.0003   0.0001   0.0001   0.0002   0.00   93.8
2024/05/25 01:19:00.000   3337519.6003   1742282.5900   5131459.3793   1  42   0.0003   0.0002   0.0003   0.0001   0.0001   0.0002   0.00   94.7
2024/05/25 01:19:30.000   3337519.6005   1742282.5900   5131459.3793   1  42   0.0003   0.0002   0.0003   0.0001   0.0001   0.0002   0.00  102.7
2024/05/25 01:20:00.000   3337519.6005   1742282.5900   5131459.3793   1  42   0.0003   0.0002   0.0003   0.0001   0.0001   0.0002   0.00   61.2
2024/05/25 01:20:30.000   3337519.6005   1742282.5900   5131459.3793   1  42   0.0003   0.0002   0.0003   0.0001   0.0001   0.0002   0.00   77.3
2024/05/25 01:21:00.000   3337519.6005   1742282.5900   5131459.3793   1  42   0.0003   0.0002   0.0003   0.0001   0.0001   0.0002   0.00   87.4
2024/05/25 01:21:30.000   3337519.6005   1742282.5900   5131459.3793   1  42   0.0003   0.0002   0.0003   0.0001   0.0001   0.0002   0.00   97.5
2024/05/25 01:22:00.000   3337519.6004   1742282.5900   5131459.3793   1  42   0.0003   0.0002   0.0003   0.0001   0.0001   0.0002   0.00  106.0
2024/05/25 01:22:30.000   3337519.6004   1742282.5900   5131459.3793   1  42   0.0003   0.0002   0.0003   0.0001   0.0001   0.0002   0.00  114.7
2024/05/25 01:23:00.000   3337519.6005   1742282.5900   5131459.3793   1  42   0.0003   0.0002   0.0003   0.0001   0.0001   0.0002   0.00  116.9
2024/05/25 01:23:30.000   3337519.6004   1742282.5901   5131459.3793   1  42   0.0003   0.0002   0.0003   0.0001   0.0001   0.0002   0.00  123.2
2024/05/25 01:24:00.000   3337519.6005   1742282.5900   5131459.3793   1  42   0.0003   0.0002   0.0003   0.0001   0.0001   0.0002   0.00  130.8
2024/05/25 01:24:30.000   3337519.6004   1742282.5900   5131459.3793   1  42   0.0003   0.0002   0.0003   0.0001   0.0001   0.0002   0.00  137.5
2024/05/25 01:25:00.000   3337519.6004   1742282.5901   5131459.3793   1  42   0.0003   0.0002   0.0003   0.0001   0.0001   0.0002   0.00  141.2
2024/05/25 01:25:30.000   3337519.6004   1742282.5901   5131459.3793   1  42   0.0003   0.0002   0.0003   0.0001   0.0001   0.0002   0.00  146.9
2024/05/25 01:26:00.000   3337519.6004   1742282.5901   5131459.3793   1  42   0.0003   0.0002   0.0003   0.0001   0.0001   0.0002   0.00  149.7
2024/05/25 01:26:30.000   3337519.6004   1742282.5901   5131459.3793   1  42   0.0003   0.0002   0.0003   0.0001   0.0001   0.0002   0.00  161.9
2024/05/25 01:27:00.000   3337519.6004   1742282.5901   5131459.3793   1  42   0.0003   0.0002   0.0003   0.0001   0.0001   0.0002   0.00  164.9
2024/05/25 01:27:30.000   3337519.6004   1742282.5901   5131459.3793   1  43   0.0003   0.0002   0.0003   0.0001   0.0001   0.0002   0.00  169.9
2024/05/25 01:28:00.000   3337519.6004   1742282.5901   5131459.3793   1  43   0.0003   0.0002   0.0003   0.0001   0.0001   0.0002   0.00  172.5
2024/05/25 01:28:30.000   3337519.6004   1742282.5901   5131459.3793   1  43   0.0003   0.0002   0.0003   0.0001   0.0001   0.0002   0.00  177.4
2024/05/25 01:29:00.000   3337519.6004   1742282.5901   5131459.3793   1  43   0.0003   0.0002   0.0003   0.0001   0.0001   0.0002   0.00  180.8
2024/05/25 01:29:30.000   3337519.6004   1742282.5901   5131459.3793   1  44   0.0003   0.0002   0.0003   0.0001   0.0001   0.0002   0.00  183.8
2024/05/25 01:30:00.000   3337519.6004   1742282.5901   5131459.3793   1  43   0.0003   0.0002   0.0003   0.0001   0.0001   0.0002   0.00  187.2
2024/05/25 01:30:30.000   3337519.6004   1742282.5901   5131459.3793   1  45   0.0003   0.0002   0.0003   0.0001   0.0001   0.0002   0.00  191.9
2024/05/25 01:31:00.000   3337519.6004   1742282.5901   5131459.3793   1  44   0.0003   0.0002   0.0003   0.0001   0.0001   0.0002   0.00  197.1
2024/05/25 01:31:30.000   3337519.6004   1742282.5901   5131459.3793   1  44   0.0003   0.0002   0.0003   0.0001   0.0001   0.0002   0.00  201.4
2024/05/25 01:32:00.000   3337519.6004   1742282.5901   5131459.3793   1  44   0.0003   0.0002   0.0003   0.0001   0.0001   0.0002   0.00  202.2
2024/05/25 01:32:30.000   3337519.6004   1742282.5901   5131459.3793   1  44   0.0003   0.0002   0.0003   0.0001   0.0001   0.0002   0.00  204.5
2024/05/25 01:33:00.000   3337519.6004   1742282.5901   5131459.3793   1  44   0.0003   0.0002   0.0003   0.0001   0.0001   0.0002   0.00  208.7
2024/05/25 01:33:30.000   3337519.6004   1742282.5901   5131459.3793   1  44   0.0003   0.0002   0.0003   0.0001   0.0001   0.0002   0.00  210.2
2024/05/25 01:34:00.000   3337519.6004   1742282.5901   5131459.3793   1  44   0.0003   0.0002   0.0003   0.0001   0.0001   0.0002   0.00  216.5
2024/05/25 01:34:30.000   3337519.6004   1742282.5901   5131459.3793   1  43   0.0003   0.0002   0.0003   0.0001   0.0001   0.0002   0.00  224.6
2024/05/25 01:35:00.000   3337519.6004   1742282.5901   5131459.3793   1  43   0.0003   0.0002   0.0003   0.0001   0.0001   0.0002   0.00  233.0
2024/05/25 01:35:30.000   3337519.6003   1742282.5901   5131459.3793   1  43   0.0003   0.0002   0.0003   0.0001   0.0001   0.0002   0.00  232.8
2024/05/25 01:36:00.000   3337519.6003   1742282.5901   5131459.3793   1  43   0.0003   0.0002   0.0003   0.0001   0.0001   0.0002   0.00  236.0
2024/05/25 01:36:30.000   3337519.6003   1742282.5901   5131459.3793   1  43   0.0003   0.0002   0.0003   0.0001   0.0001   0.0002   0.00  243.1
2024/05/25 01:37:00.000   3337519.6003   1742282.5901   5131459.3793   1  43   0.0003   0.0002   0.0003   0.0001   0.0001   0.0002   0.00  250.7
2024/05/25 01:37:30.000   3337519.6003   1742282.5901   5131459.3793   1  43   0.0003   0.0002   0.0003   0.0001   0.0001   0.0002   0.00  261.5
2024/05/25 01:38:00.000   3337519.6003   1742282.5901   5131459.3793   1  42   0.0003   0.0002   0.0003   0.0001   0.0001   0.0002   0.00  271.0
2024/05/25 01:38:30.000   3337519.6003   1742282.5901   5131459.3793   1  42   0.0003   0.0002   0.0003   0.0001   0.0001   0.0002   0.00  277.0
2024/05/25 01:39:00.000   3337519.6003   1742282.5901   5131459.3793   1  42   0.0003   0.0002   0.0003   0.0001   0.0001   0.0002   0.00  283.4
2024/05/25 01:39:30.000   3337519.6003   1742282.5901   5131459.3793   1  42   0.0003   0.0002   0.0003   0.0001   0.0001   0.0002   0.00  289.3
2024/05/25 01:40:00.000   3337519.6003   1742282.5901   5131459.3793   1  42   0.0003   0.0002   0.0003   0.0001   0.0001   0.0002   0.00  293.5
2024/05/25 01:40:30.000   3337519.6003   1742282.5901   5131459.3793   1  42   0.0003   0.0002   0.0003   0.0001   0.0001   0.0002   0.00  302.4
2024/05/25 01:41:00.000   3337519.6003   1742282.5901   5131459.3793   1  42   0.0003   0.0002   0.0003   0.0001   0.0001   0.0002   0.00   62.4
2024/05/25 01:41:30.000   3337519.6003   1742282.5901   5131459.3793   1  42   0.0003   0.0002   0.0003   0.0001   0.0001   0.0002   0.00   65.8
2024/05/25 01:42:00.000   3337519.6003   1742282.5901   5131459.3793   1  42   0.0003   0.0002   0.0003   0.0001   0.0001   0.0002   0.00   69.8
2024/05/25 01:42:30.000   3337519.6002   1742282.5901   5131459.3792   1  42   0.0003   0.0002   0.0003   0.0001   0.0001   0.0002   0.00   69.8
2024/05/25 01:43:00.000   3337519.6002   1742282.5901   5131459.3792   1  42   0.0003   0.0002   0.0003   0.0001   0.0001   0.0002   0.00   74.2
2024/05/25 01:43:30.000   3337519.6002   1742282.5901   5131459.3792   1  42   0.0003   0.0002   0.0003   0.0001   0.0001   0.0002   0.00   78.6
2024/05/25 01:44:00.000   3337519.6002   1742282.5901   5131459.3792   1  42   0.0003   0.0002   0.0003   0.0001   0.0001   0.0002   0.00   82.8
2024/05/25 01:44:30.000   3337519.6002   1742282.5901   5131459.3792   1  42   0.0003   0.0002   0.0003   0.0001   0.0001   0.0002   0.00   87.7
2024/05/25 01:45:00.000   3337519.6002   1742282.5901   5131459.3792   1  42   0.0003   0.0002   0.0003   0.0001   0.0001   0.0002   0.00   93.4
2024/05/25 01:45:30.000   3337519.6002   1742282.5901   5131459.3792   1  42   0.0003   0.0002   0.0003   0.0001   0.0001   0.0002   0.00   98.9
2024/05/25 01:46:00.000   3337519.6002   1742282.5901   5131459.3793   1  42   0.0003   0.0002   0.0003   0.0001   0.0001   0.0002   0.00  103.6
2024/05/25 01:46:30.000   3337519.6002   1742282.5901   5131459.3793   1  41   0.0003   0.0002   0.0003   0.0001   0.0001   0.0002   0.00  108.1
2024/05/25 01:47:00.000   3337519.6002   1742282.5901   5131459.3793   1  42   0.0003   0.0002   0.0003   0.0001   0.0001   0.0002   0.00  111.5
2024/05/25 01:47:30.000   3337519.6003   1742282.5901   5131459.3793   1  42   0.0003   0.0002   0.0003   0.0001   0.0001   0.0002   0.00  122.5
2024/05/25 01:48:00.000   3337519.6003   1742282.5901   5131459.3793   1  42   0.0003   0.0002   0.0003   0.0001   0.0001   0.0002   0.00  129.9
2024/05/25 01:48:30.000   3337519.6003   1742282.5901   5131459.3793   1  41   0.0003   0.0002   0.0003   0.0001   0.0001   0.0002   0.00  137.1
2024/05/25 01:49:00.000   3337519.6003   1742282.5901   5131459.3793   1  42   0.0003   0.0002   0.0003   0.0001   0.0001   0.0002   0.00  144.7
2024/05/25 01:49:30.000   3337519.6003   1742282.5901   5131459.3793   1  42   0.0003   0.0002   0.0003   0.0001   0.0001   0.0002   0.00  148.8
2024/05/25 01:50:00.000   3337519.6003   1742282.5901   5131459.3793   1  42   0.0003   0.0002   0.0003   0.0001   0.0001   0.0002   0.00  154.0
2024/05/25 01:50:30.000   3337519.6003   1742282.5901   5131459.3793   1  42   0.0003   0.0002   0.0003   0.0001   0.0001   0.0002   0.00  157.1
2024/05/25 01:51:00.000   3337519.6003   1742282.5901   5131459.3793   1  42   0.0003   0.0002   0.0003   0.0001   0.0001   0.0002   0.00  174.2
2024/05/25 01:51:30.000   3337519.6003   1742282.5901   5131459.3793   1  42   0.0003   0.0002   0.0003   0.0001   0.0001   0.0002   0.00  178.2
2024/05/25 01:52:00.000   3337519.6003   1742282.5901   5131459.3793   1  40   0.0003   0.0002   0.0003   0.0001   0.0001   0.0002   0.00  180.9
2024/05/25 01:52:30.000   3337519.6003   1742282.5901   5131459.3793   1  40   0.0003   0.0002   0.0003   0.0001   0.0001   0.0002   0.00  186.8
2024/05/25 01:53:00.000   3337519.6003   1742282.5901   5131459.3793   1  40   0.0003   0.0002   0.0003   0.0001   0.0001   0.0002   0.00  181.3
2024/05/25 01:53:30.000   3337519.6003   1742282.5901   5131459.3793   1  40   0.0003   0.0002   0.0003   0.0001   0.0001   0.0002   0.00  195.9
2024/05/25 01:54:00.000   3337519.6003   1742282.5901   5131459.3793   1  40   0.0003   0.0002   0.0003   0.0001   0.0001   0.0002   0.00  205.5
2024/05/25 01:54:30.000   3337519.6003   1742282.5901   5131459.3793   1  40   0.0003   0.0002   0.0003   0.0001   0.0001   0.0002   0.00    6.7
2024/05/25 01:55:00.000   3337519.6003   1742282.5901   5131459.3793   1  39   0.0003   0.0002   0.0003   0.0001   0.0001   0.0002   0.00  220.8
2024/05/25 01:55:30.000   3337519.6003   1742282.5901   5131459.3793   1  39   0.0003   0.0002   0.0003   0.0001   0.0001   0.0002   0.00  224.2
2024/05/25 01:56:00.000   3337519.6003   1742282.5901   5131459.3793   1  38   0.0003   0.0002   0.0003   0.0001   0.0001   0.0002   0.00  226.3
2024/05/25 01:56:30.000   3337519.6003   1742282.5901   5131459.3793   1  39   0.0003   0.0002   0.0003   0.0001   0.0001   0.0002   0.00  223.6
2024/05/25 01:57:00.000   3337519.6003   1742282.5901   5131459.3793   1  39   0.0003   0.0002   0.0003   0.0001   0.0001   0.0002   0.00  226.6
2024/05/25 01:57:30.000   3337519.6003   1742282.5901   5131459.3793   1  39   0.0003   0.0002   0.0003   0.0001   0.0001   0.0002   0.00  232.5
2024/05/25 01:58:00.000   3337519.6003   1742282.5901   5131459.3793   1  39   0.0003   0.0002   0.0003   0.0001   0.0001   0.0002   0.00  239.2
2024/05/25 01:58:30.000   3337519.6003   1742282.5901   5131459.3793   1  39   0.0003   0.0002   0.0003   0.0001   0.0001   0.0002   0.00  244.4
2024/05/25 01:59:00.000   3337519.6003   1742282.5901   5131459.3793   1  39   0.0003   0.0002   0.0003   0.0001   0.0001   0.0002   0.00  251.9
2024/05/25 01:59:30.000   3337519.6003   1742282.5901   5131459.3793   1  39   0.0003   0.0002   0.0003   0.0001   0.0001   0.0002   0.00  262.2
2024/05/25 02:00:00.000   3337519.6003   1742282.5901   5131459.3793   1  39   0.0003   0.0002   0.0003   0.0001   0.0001   0.0002   0.00  278.3
2024/05/25 02:00:30.000   3337519.6003   1742282.5901   5131459.3793   1  38   0.0003   0.0002   0.0003   0.0001   0.0001   0.0002   0.00  288.6
2024/05/25 02:01:00.000   3337519.6003   1742282.5901   5131459.3793   1  39   0.0003   0.0002   0.0003   0.0001   0.0001   0.0002   0.00    4.4
2024/05/25 02:01:30.000   3337519.6003   1742282.5901   5131459.3793   1  38   0.0003   0.0002   0.0003   0.0001   0.0001   0.0002   0.00  316.8
2024/05/25 02:02:00.000   3337519.6003   1742282.5901   5131459.3793   1  39   0.0003   0.0002   0.0003   0.0001   0.0001   0.0002   0.00    5.7
2024/05/25 02:02:30.000   3337519.6003   1742282.5901   5131459.3793   1  39   0.0003   0.0002   0.0003   0.0001   0.0001   0.0002   0.00    5.4
2024/05/25 02:03:00.000   3337519.6003   1742282.5901   5131459.3793   1  39   0.0003   0.0002   0.0003   0.0001   0.0001   0.0002   0.00    5.4
2024/05/25 02:03:30.000   3337519.6003   1742282.5901   5131459.3793   1  39   0.0003   0.0002   0.0003   0.0001   0.0001   0.0002   0.00    5.2
2024/05/25 02:04:00.000   3337519.6003   1742282.5901   5131459.3793   1  39   0.0003   0.0002   0.0003   0.0001   0.0001   0.0002   0.00    5.3
2024/05/25 02:04:30.000   3337519.6003   1742282.5901   5131459.3793   1  39   0.0003   0.0002   0.0003   0.0001   0.0001   0.0002   0.00    7.6
2024/05/25 02:05:00.000   3337519.6003   1742282.5901   5131459.3793   1  39   0.0003   0.0002   0.0003   0.0001   0.0001   0.0002   0.00    4.8
2024/05/25 02:05:30.000   3337519.6000   1742282.5908   5131459.3811   1  39   0.0006   0.0005   0.0008   0.0004   0.0004   0.0005   0.00    9.5
2024/05/25 02:06:00.000   3337519.6006   1742282.5895   5131459.3792   1   7   0.0003   0.0003   0.0003   0.0001   0.0001   0.0002   0.00  999.9
2024/05/25 02:06:30.000   3337519.6003   1742282.5902   5131459.3793   1   5   0.0003   0.0003   0.0003   0.0001   0.0001   0.0002   0.00   99.9
2024/05/25 02:07:00.000   3337519.5992   1742282.5903   5131459.3795   1   8   0.0003   0.0003   0.0003   0.0001   0.0001   0.0002   0.00    4.6
2024/05/25 02:07:30.000   3337519.5996   1742282.5908   5131459.3788   1   9   0.0003   0.0003   0.0003   0.0001   0.0001   0.0002   0.00    6.0
2024/05/25 02:08:00.000   3337519.5994   1742282.5911   5131459.3789   1   8   0.0003   0.0003   0.0003   0.0001   0.0001   0.0002   0.00    3.1
2024/05/25 02:08:30.000   3337519.5991   1742282.5905   5131459.3783   1   9   0.0003   0.0003   0.0003   0.0001   0.0001   0.0002   0.00   13.5
2024/05/25 02:09:00.000   3337519.5989   1742282.5906   5131459.3783   1   8   0.0003   0.0003   0.0003   0.0001   0.0001   0.0002   0.00   10.7
2024/05/25 02:09:30.000   3337519.5987   1742282.5907   5131459.3782   1   8   0.0003   0.0003   0.0003   0.0001   0.0001   0.0002   0.00    8.7
2024/05/25 02:10:00.000   3337519.5986   1742282.5907   5131459.3782   1   9   0.0003   0.0003   0.0003   0.0001   0.0001   0.0002   0.00    7.3
2024/05/25 02:10:30.000   3337519.5982   1742282.5903   5131459.3779   1   9   0.0003   0.0003   0.0003   0.0001   0.0001   0.0002   0.00    3.0
2024/05/25 02:11:00.000   3337519.5981   1742282.5905   5131459.3780   1   9   0.0003   0.0003   0.0003   0.0001   0.0001   0.0002   0.00    3.9
2024/05/25 02:11:30.000   3337519.5980   1742282.5907   5131459.3780   1   9   0.0003   0.0003   0.0003   0.0001   0.0001   0.0002   0.00    4.3
2024/05/25 02:12:00.000   3337519.5979   1742282.5909   5131459.3781   1   9   0.0003   0.0003   0.0003   0.0001   0.0001   0.0002   0.00    4.1
2024/05/25 02:12:30.000   3337519.5978   1742282.5912   5131459.3781   1   8   0.0003   0.0003   0.0003   0.0001   0.0001   0.0002   0.00    3.6
2024/05/25 02:13:00.000   3337519.5977   1742282.5914   5131459.3781   1   9   0.0003   0.0003   0.0003   0.0001   0.0001   0.0002   0.00    3.0
2024/05/25 02:13:30.000   3337519.6006   1742282.5898   5131459.3791   1   8   0.0003   0.0003   0.0003   0.0001   0.0001   0.0002   0.00   62.4
2024/05/25 02:14:00.000   3337519.6006   1742282.5899   5131459.3791   1   8   0.0003   0.0003   0.0003   0.0001   0.0001   0.0002   0.00    7.1
2024/05/25 02:14:30.000   3337519.6006   1742282.5899   5131459.3791   1   8   0.0003   0.0003   0.0003   0.0001   0.0001   0.0002   0.00   42.7
2024/05/25 02:15:00.000   3337519.6006   1742282.5899   5131459.3791   1   8   0.0003   0.0003   0.0003   0.0001   0.0001   0.0002   0.00   33.1
2024/05/25 02:15:30.000   3337519.6006   1742282.5899   5131459.3791   1   8   0.0003   0.0003   0.0003   0.0001   0.0001   0.0002   0.00   22.7
2024/05/25 02:16:00.000   3337519.6006   1742282.5899   5131459.3791   1   8   0.0003   0.0003   0.0003   0.0001   0.0001   0.0002   0.00   12.5
2024/05/25 02:16:30.000   3337519.6006   1742282.5899   5131459.3791   1   9   0.0003   0.0003   0.0003   0.0001   0.0001   0.0002   0.00    7.0
2024/05/25 02:17:00.000   3337519.5963   1742282.5920   5131459.3774   2   8   0.0003   0.0003   0.0003   0.0001   0.0001   0.0002   0.00    1.5
2024/05/25 02:17:30.000   3337519.6006   1742282.5899   5131459.3791   1   8   0.0003   0.0003   0.0003   0.0001   0.0001   0.0002   0.00   36.6
2024/05/25 02:18:00.000   3337519.6006   1742282.5899   5131459.3791   1   9   0.0003   0.0003   0.0003   0.0001   0.0001   0.0002   0.00   22.9
2024/05/25 02:18:30.000   3337519.6006   1742282.5899   5131459.3791   1   8   0.0003   0.0003   0.0003   0.0001   0.0001   0.0002   0.00   23.8
2024/05/25 02:19:00.000   3337519.6006   1742282.5899   5131459.3791   1   8   0.0003   0.0003   0.0003   0.0001   0.0001   0.0002   0.00   10.6
2024/05/25 02:19:30.000   3337519.6006   1742282.5899   5131459.3791   1   9   0.0003   0.0003   0.0003   0.0001   0.0001   0.0002   0.00   20.9
2024/05/25 02:20:00.000   3337519.6006   1742282.5899   5131459.3791   1   9   0.0003   0.0003   0.0003   0.0001   0.0001   0.0002   0.00   22.2
2024/05/25 02:20:30.000   3337519.6006   1742282.5899   5131459.3791   1   6   0.0003   0.0003   0.0003   0.0001   0.0001   0.0002   0.00   63.5
2024/05/25 02:21:00.000   3337519.6006   1742282.5899   5131459.3791   1   6   0.0003   0.0003   0.0003   0.0001   0.0001   0.0002   0.00   57.1
2024/05/25 02:21:30.000   3337519.6006   1742282.5899   5131459.3791   1   6   0.0003   0.0003   0.0003   0.0001   0.0001   0.0002   0.00   47.5
2024/05/25 02:22:00.000   3337519.6006   1742282.5899   5131459.3791   1   8   0.0003   0.0003   0.0003   0.0001   0.0001   0.0002   0.00   34.4
2024/05/25 02:22:30.000   3337519.6006   1742282.5899   5131459.3791   1   8   0.0003   0.0003   0.0003   0.0001   0.0001   0.0002   0.00   22.6
2024/05/25 02:23:00.000   3337519.6006   1742282.5899   5131459.3791   1   8   0.0003   0.0003   0.0003   0.0001   0.0001   0.0002   0.00   11.6
2024/05/25 02:23:30.000   3337519.6006   1742282.5899   5131459.3791   1   8   0.0003   0.0003   0.0003   0.0001   0.0001   0.0002   0.00   79.4
2024/05/25 02:24:00.000   3337519.6006   1742282.5899   5131459.3791   1   8   0.0003   0.0003   0.0003   0.0001   0.0001   0.0002   0.00   69.7
2024/05/25 02:24:30.000   3337519.6006   1742282.5899   5131459.3791   1   8   0.0003   0.0003   0.0003   0.0001   0.0001   0.0002   0.00   58.6
2024/05/25 02:25:00.000   3337519.6007   1742282.5899   5131459.3791   1   8   0.0003   0.0003   0.0003   0.0001   0.0001   0.0002   0.00   54.7
2024/05/25 02:25:30.000   3337519.6007   1742282.5899   5131459.3791   1   8   0.0003   0.0003   0.0003   0.0001   0.0001   0.0002   0.00   37.2
2024/05/25 02:26:00.000   3337519.6007   1742282.5899   5131459.3791   1   8   0.0003   0.0003   0.0003   0.0001   0.0001   0.0002   0.00   12.8
2024/05/25 02:26:30.000   3337519.6007   1742282.5899   5131459.3791   1   8   0.0003   0.0003   0.0003   0.0001   0.0001   0.0002   0.00   12.6
2024/05/25 02:27:00.000   3337519.6007   1742282.5899   5131459.3791   1   9   0.0003   0.0003   0.0003   0.0001   0.0001   0.0002   0.00   18.9
2024/05/25 02:27:30.000   3337519.6007   1742282.5899   5131459.3792   1   6   0.0003   0.0003   0.0003   0.0001   0.0001   0.0002   0.00   35.1
2024/05/25 02:28:00.000   3337519.6007   1742282.5899   5131459.3792   1   6   0.0003   0.0003   0.0003   0.0001   0.0001   0.0002   0.00   24.0
2024/05/25 02:28:30.000   3337519.6007   1742282.5899   5131459.3792   1   6   0.0003   0.0003   0.0003   0.0001   0.0001   0.0002   0.00   12.5
2024/05/25 02:29:00.000   3337519.6007   1742282.5899   5131459.3792   1   5   0.0003   0.0003   0.0003   0.0001   0.0001   0.0002   0.00  369.0
2024/05/25 02:29:30.000   3337519.6007   1742282.5899   5131459.3792   1   6   0.0003   0.0003   0.0003   0.0001   0.0001   0.0002   0.00   80.7
2024/05/25 02:30:00.000   3337519.6007   1742282.5899   5131459.3792   1   6   0.0003   0.0003   0.0003   0.0001   0.0001   0.0002   0.00    8.7
2024/05/25 02:30:30.000   3337519.6007   1742282.5899   5131459.3792   1   6   0.0003   0.0003   0.0003   0.0001   0.0001   0.0002   0.00   60.4
2024/05/25 02:31:00.000   3337519.6007   1742282.5899   5131459.3792   1   6   0.0003   0.0003   0.0003   0.0001   0.0001   0.0002   0.00   55.2
2024/05/25 02:31:30.000   3337519.6007   1742282.5899   5131459.3792   1   6   0.0003   0.0003   0.0003   0.0001   0.0001   0.0002   0.00   47.3
2024/05/25 02:32:00.000   3337519.6007   1742282.5899   5131459.3792   1   6   0.0003   0.0003   0.0003   0.0001   0.0001   0.0002   0.00   36.5
2024/05/25 02:32:30.000   3337519.6007   1742282.5899   5131459.3792   1   8   0.0003   0.0003   0.0003   0.0001   0.0001   0.0002   0.00   24.8
2024/05/25 02:33:00.000   3337519.6007   1742282.5899   5131459.3792   1   8   0.0003   0.0003   0.0003   0.0001   0.0001   0.0002   0.00   13.6
2024/05/25 02:33:30.000   3337519.6007   1742282.5899   5131459.3792   1   8   0.0003   0.0003   0.0003   0.0001   0.0001   0.0002   0.00    7.2
2024/05/25 02:34:00.000   3337519.6007   1742282.5899   5131459.3791   1   8   0.0003   0.0003   0.0003   0.0001   0.0001   0.0002   0.00   20.1
2024/05/25 02:34:30.000   3337519.6007   1742282.5899   5131459.3791   1   6   0.0003   0.0003   0.0003   0.0001   0.0001   0.0002   0.00   44.5
2024/05/25 02:35:00.000   3337519.6007   1742282.5899   5131459.3791   1   6   0.0003   0.0003   0.0003   0.0001   0.0001   0.0002   0.00   34.3
2024/05/25 02:35:30.000   3337519.6007   1742282.5899   5131459.3791   1   6   0.0003   0.0003   0.0003   0.0001   0.0001   0.0002   0.00   24.1
2024/05/25 02:36:00.000   3337519.6007   1742282.5899   5131459.3791   1   6   0.0003   0.0003   0.0003   0.0001   0.0001   0.0002   0.00   13.0
2024/05/25 02:36:30.000   3337519.6007   1742282.5899   5131459.3791   1   6   0.0003   0.0003   0.0003   0.0001   0.0001   0.0002   0.00   44.1
2024/05/25 02:37:00.000   3337519.6007   1742282.5899   5131459.3791   1   6   0.0003   0.0003   0.0003   0.0001   0.0001   0.0002   0.00   36.1
2024/05/25 02:37:30.000   3337519.6007   1742282.5899   5131459.3792   1   8   0.0003   0.0003   0.0003   0.0001   0.0001   0.0002   0.00   12.9
2024/05/25 02:38:00.000   3337519.6007   1742282.5899   5131459.3791   1   8   0.0003   0.0003   0.0003   0.0001   0.0001   0.0002   0.00   13.0
2024/05/25 02:38:30.000   3337519.6007   1742282.5899   5131459.3791   1   8   0.0003   0.0003   0.0003   0.0001   0.0001   0.0002   0.00   16.4
2024/05/25 02:39:00.000   3337519.6007   1742282.5899   5131459.3791   1   8   0.0003   0.0003   0.0003   0.0001   0.0001   0.0002   0.00   13.9
2024/05/25 02:39:30.000   3337519.6007   1742282.5899   5131459.3791   1   9   0.0003   0.0003   0.0003   0.0001   0.0001   0.0002   0.00   25.5
2024/05/25 02:40:00.000   3337519.5961   1742282.5922   5131459.3777   2   9   0.0003   0.0003   0.0003   0.0001   0.0001   0.0002   0.00    1.0
2024/05/25 02:40:30.000   3337519.6007   1742282.5899   5131459.3791   1   9   0.0003   0.0003   0.0003   0.0001   0.0001   0.0002   0.00   22.1
2024/05/25 02:41:00.000   3337519.6007   1742282.5899   5131459.3791   1   8   0.0003   0.0003   0.0003   0.0001   0.0001   0.0002   0.00   24.2
2024/05/25 02:41:30.000   3337519.6007   1742282.5899   5131459.3791   1   9   0.0003   0.0003   0.0003   0.0001   0.0001   0.0002   0.00   12.4
2024/05/25 02:42:00.000   3337519.6007   1742282.5899   5131459.3791   1   9   0.0003   0.0003   0.0003   0.0001   0.0001   0.0002   0.00   22.5
2024/05/25 02:42:30.000   3337519.6007   1742282.5900   5131459.3791   1   8   0.0003   0.0003   0.0003   0.0001   0.0001   0.0002   0.00   12.4
2024/05/25 02:43:00.000   3337519.6007   1742282.5899   5131459.3791   1   8   0.0003   0.0003   0.0003   0.0001   0.0001   0.0002   0.00   32.2
2024/05/25 02:43:30.000   3337519.6007   1742282.5899   5131459.3791   1   8   0.0003   0.0003   0.0003   0.0001   0.0001   0.0002   0.00   23.0
2024/05/25 02:44:00.000   3337519.6007   1742282.5900   5131459.3791   1   8   0.0003   0.0003   0.0003   0.0001   0.0001   0.0002   0.00    3.7
2024/05/25 02:44:30.000   3337519.6006   1742282.5900   5131459.3791   1   9   0.0003   0.0003   0.0003   0.0001   0.0001   0.0002   0.00    8.3
2024/05/25 02:45:00.000   3337519.6007   1742282.5900   5131459.3791   1   8   0.0003   0.0003   0.0003   0.0001   0.0001   0.0002   0.00   47.8
2024/05/25 02:45:30.000   3337519.6007   1742282.5899   5131459.3791   1   8   0.0003   0.0003   0.0003   0.0001   0.0001   0.0002   0.00   20.1
2024/05/25 02:46:00.000   3337519.6007   1742282.5900   5131459.3791   1   9   0.0003   0.0003   0.0003   0.0001   0.0001   0.0002   0.00   13.8
2024/05/25 02:46:30.000   3337519.6007   1742282.5899   5131459.3791   1  10   0.0003   0.0003   0.0003   0.0001   0.0001   0.0002   0.00    3.5
2024/05/25 02:47:00.000   3337519.6007   1742282.5900   5131459.3791   1   9   0.0003   0.0003   0.0003   0.0001   0.0001   0.0002   0.00    9.0
2024/05/25 02:47:30.000   3337519.6007   1742282.5900   5131459.3792   1   9   0.0003   0.0003   0.0003   0.0001   0.0001   0.0002   0.00   11.0
2024/05/25 02:48:00.000   3337519.6007   1742282.5900   5131459.3791   1   9   0.0003   0.0003   0.0003   0.0001   0.0001   0.0002   0.00   22.9
2024/05/25 02:48:30.000   3337519.6007   1742282.5900   5131459.3791   1   9   0.0003   0.0003   0.0003   0.0001   0.0001   0.0002   0.00   19.0
2024/05/25 02:49:00.000   3337519.6007   1742282.5900   5131459.3791   1   8   0.0003   0.0003   0.0003   0.0001   0.0001   0.0002   0.00   13.5
2024/05/25 02:49:30.000   3337519.6007   1742282.5900   5131459.3791   1   8   0.0003   0.0003   0.0003   0.0001   0.0001   0.0002   0.00   92.5
2024/05/25 02:50:00.000   3337519.6007   1742282.5900   5131459.3791   1   8   0.0003   0.0003   0.0003   0.0001   0.0001   0.0002   0.00   71.6
2024/05/25 02:50:30.000   3337519.6007   1742282.5900   5131459.3791   1   8   0.0003   0.0003   0.0003   0.0001   0.0001   0.0002   0.00   47.0
2024/05/25 02:51:00.000   3337519.6007   1742282.5900   5131459.3791   1   8   0.0003   0.0003   0.0003   0.0001   0.0001   0.0002   0.00   24.4
2024/05/25 02:51:30.000   3337519.6007   1742282.5900   5131459.3791   1   8   0.0003   0.0003   0.0003   0.0001   0.0001   0.0002   0.00   22.5
2024/05/25 02:52:00.000   3337519.6007   1742282.5900   5131459.3791   1   6   0.0003   0.0003   0.0003   0.0001   0.0001   0.0002   0.00    8.8
2024/05/25 02:52:30.000   3337519.6007   1742282.5900   5131459.3791   1   6   0.0003   0.0003   0.0003   0.0001   0.0001   0.0002   0.00   26.6
2024/05/25 02:53:00.000   3337519.6007   1742282.5900   5131459.3791   1   6   0.0003   0.0003   0.0003   0.0001   0.0001   0.0002   0.00   13.2
2024/05/25 02:53:30.000   3337519.6007   1742282.5900   5131459.3791   1   6   0.0003   0.0003   0.0003   0.0001   0.0001   0.0002   0.00   13.5
2024/05/25 02:54:00.000   3337519.6008   1742282.5899   5131459.3792   1   6   0.0003   0.0003   0.0003   0.0001   0.0001   0.0002   0.00    4.9
2024/05/25 02:54:30.000   3337519.6008   1742282.5899   5131459.3792   1   6   0.0003   0.0003   0.0003   0.0001   0.0001   0.0002   0.00   32.6
2024/05/25 02:55:00.000   3337519.6008   1742282.5899   5131459.3792   1   6   0.0003   0.0003   0.0003   0.0001   0.0001   0.0002   0.00   31.0
2024/05/25 02:55:30.000   3337519.6008   1742282.5899   5131459.3792   1   6   0.0003   0.0003   0.0003   0.0001   0.0001   0.0002   0.00   29.1
2024/05/25 02:56:00.000   3337519.6008   1742282.5899   5131459.3792   1   6   0.0003   0.0003   0.0003   0.0001   0.0001   0.0002   0.00   26.1
2024/05/25 02:56:30.000   3337519.6008   1742282.5899   5131459.3792   1   6   0.0003   0.0003   0.0003   0.0001   0.0001   0.0002   0.00   20.1
2024/05/25 02:57:00.000   3337519.6008   1742282.5899   5131459.3792   1   6   0.0003   0.0003   0.0003   0.0001   0.0001   0.0002   0.00   14.6
2024/05/25 02:57:30.000   3337519.6008   1742282.5899   5131459.3792   1   6   0.0003   0.0003   0.0003   0.0001   0.0001   0.0002   0.00    9.7
2024/05/25 02:58:00.000   3337519.6008   1742282.5899   5131459.3792   1   6   0.0003   0.0003   0.0003   0.0001   0.0001   0.0002   0.00    5.1
2024/05/25 02:58:30.000   3337519.6007   1742282.5899   5131459.3793   1   4   0.0003   0.0003   0.0003   0.0001   0.0001   0.0002   0.00   12.7
2024/05/25 02:59:00.000   3337519.6007   1742282.5899   5131459.3793   1   4   0.0003   0.0003   0.0003   0.0001   0.0001   0.0002   0.00   10.5
2024/05/25 02:59:30.000   3337519.6007   1742282.5899   5131459.3793   1   4   0.0003   0.0003   0.0003   0.0001   0.0001   0.0002   0.00    8.7
2024/05/25 03:00:00.000   3337519.6007   1742282.5899   5131459.3793   1   4   0.0003   0.0003   0.0003   0.0001   0.0001   0.0002   0.00    7.1
2024/05/25 03:00:30.000   3337519.6006   1742282.5901   5131459.3792   1   4   0.0003   0.0003   0.0003   0.0001   0.0001   0.0002   0.00    4.6
2024/05/25 03:01:00.000   3337519.6006   1742282.5901   5131459.3792   1   4   0.0003   0.0003   0.0003   0.0001   0.0001   0.0002   0.00   12.5
2024/05/25 03:01:30.000   3337519.6006   1742282.5901   5131459.3792   1   4   0.0003   0.0003   0.0003   0.0001   0.0001   0.0002   0.00    7.3
2024/05/25 03:02:00.000   3337519.6006   1742282.5901   5131459.3792   1   4   0.0003   0.0003   0.0003   0.0001   0.0001   0.0002   0.00   30.0
2024/05/25 03:02:30.000   3337519.5960   1742282.5922   5131459.3779   4   3   0.0003   0.0003   0.0003   0.0001   0.0001   0.0002   0.00    0.0
2024/05/25 03:03:00.000   3337519.6006   1742282.5901   5131459.3792   1   4   0.0003   0.0003   0.0003   0.0001   0.0001   0.0002   0.00   21.7
2024/05/25 03:03:30.000   3337519.6006   1742282.5901   5131459.3792   1   4   0.0003   0.0003   0.0003   0.0001   0.0001   0.0002   0.00   14.9
2024/05/25 03:04:00.000   3337519.6006   1742282.5901   5131459.3792   1   4   0.0003   0.0003   0.0003   0.0001   0.0001   0.0002   0.00    3.3
2024/05/25 03:04:30.000   3337519.6006   1742282.5901   5131459.3792   1   4   0.0003   0.0003   0.0003   0.0001   0.0001   0.0002   0.00    4.2
2024/05/25 03:05:00.000   3337519.6006   1742282.5901   5131459.3792   1   4   0.0003   0.0003   0.0003   0.0001   0.0001   0.0002   0.00  999.9
2024/05/25 03:05:30.000   3337519.6006   1742282.5901   5131459.3792   1   4   0.0003   0.0003   0.0003   0.0001   0.0001   0.0002   0.00  999.9
2024/05/25 03:06:00.000   3337519.6006   1742282.5901   5131459.3792   1   6   0.0003   0.0003   0.0003   0.0001   0.0001   0.0002   0.00    6.1
2024/05/25 03:06:30.000   3337519.6006   1742282.5901   5131459.3792   1   7   0.0003   0.0003   0.0003   0.0001   0.0001   0.0002   0.00   17.4
2024/05/25 03:07:00.000   3337519.6006   1742282.5901   5131459.3792   1   5   0.0003   0.0003   0.0003   0.0001   0.0001   0.0002   0.00  999.9
2024/05/25 03:07:30.000   3337519.5209   1742282.6322   5131459.3474   2   5   0.0014   0.0014   0.0012   0.0005   0.0005   0.0009   0.00    1.3
2024/05/25 03:08:00.000   3337519.6006   1742282.5900   5131459.3792   1   4   0.0003   0.0003   0.0003   0.0001   0.0001   0.0002   0.00  999.9
2024/05/25 03:08:30.000   3337519.6006   1742282.5900   5131459.3793   1   5   0.0003   0.0003   0.0003   0.0001   0.0001   0.0002   0.00    7.8
2024/05/25 03:09:00.000   3337519.6006   1742282.5900   5131459.3793   1   4   0.0003   0.0003   0.0003   0.0001   0.0001   0.0002   0.00    5.5
2024/05/25 03:09:30.000   3337519.6007   1742282.5899   5131459.3793   1   4   0.0003   0.0003   0.0003   0.0001   0.0001   0.0002   0.00   32.4
2024/05/25 03:10:00.000   3337519.6006   1742282.5899   5131459.3793   1   4   0.0003   0.0003   0.0003   0.0001   0.0001   0.0002   0.00    3.4
2024/05/25 03:10:30.000   3337519.5960   1742282.5922   5131459.3779   4   3   0.0003   0.0003   0.0003   0.0001   0.0001   0.0002   0.00    0.0
2024/05/25 03:11:00.000   3337519.5960   1742282.5922   5131459.3779   4   3   0.0003   0.0003   0.0003   0.0001   0.0001   0.0002   0.00    0.0
2024/05/25 03:11:30.000   3337519.5960   1742282.5922   5131459.3779   4   3   0.0003   0.0003   0.0003   0.0001   0.0001   0.0002   0.00    0.0
2024/05/25 03:12:00.000   3337519.5960   1742282.5922   5131459.3779   4   3   0.0003   0.0003   0.0003   0.0001   0.0001   0.0002   0.00    0.0
2024/05/25 03:12:30.000   3337519.6007   1742282.5899   5131459.3794   1   7   0.0003   0.0003   0.0003   0.0001   0.0001   0.0002   0.00   20.2
2024/05/25 03:13:00.000   3337519.6006   1742282.5899   5131459.3793   1   6   0.0003   0.0003   0.0003   0.0001   0.0001   0.0002   0.00   28.9
2024/05/25 03:13:30.000   3337519.6005   1742282.5901   5131459.3793   1   6   0.0003   0.0003   0.0003   0.0001   0.0001   0.0002   0.00    3.5
2024/05/25 03:14:00.000   3337519.6006   1742282.5900   5131459.3793   1   6   0.0003   0.0003   0.0003   0.0001   0.0001   0.0002   0.00   62.2
2024/05/25 03:14:30.000   3337519.6006   1742282.5900   5131459.3794   1   7   0.0003   0.0003   0.0003   0.0001   0.0001   0.0002   0.00   15.1
2024/05/25 03:15:00.000   3337519.6006   1742282.5900   5131459.3794   1   6   0.0003   0.0003   0.0003   0.0001   0.0001   0.0002   0.00   20.4
2024/05/25 03:15:30.000   3337519.6006   1742282.5900   5131459.3794   1   6   0.0003   0.0003   0.0003   0.0001   0.0001   0.0002   0.00   49.1
2024/05/25 03:16:00.000   3337519.6006   1742282.5900   5131459.3794   1   6   0.0003   0.0003   0.0003   0.0001   0.0001   0.0002   0.00   45.8
2024/05/25 03:16:30.000   3337519.6006   1742282.5900   5131459.3794   1   7   0.0003   0.0003   0.0003   0.0001   0.0001   0.0002   0.00   13.8
2024/05/25 03:17:00.000   3337519.6006   1742282.5900   5131459.3794   1   6   0.0003   0.0003   0.0003   0.0001   0.0001   0.0002   0.00   36.0
2024/05/25 03:17:30.000   3337519.6006   1742282.5900   5131459.3794   1   6   0.0003   0.0003   0.0003   0.0001   0.0001   0.0002   0.00   29.2
2024/05/25 03:18:00.000   3337519.6006   1742282.5900   5131459.3794   1   6   0.0003   0.0003   0.0003   0.0001   0.0001   0.0002   0.00   20.1
2024/05/25 03:18:30.000   3337519.6006   1742282.5900   5131459.3794   1   6   0.0003   0.0003   0.0003   0.0001   0.0001   0.0002   0.00   10.3
2024/05/25 03:19:00.000   3337519.6006   1742282.5900   5131459.3794   1   6   0.0003   0.0003   0.0003   0.0001   0.0001   0.0002   0.00   21.1
2024/05/25 03:19:30.000   3337519.6006   1742282.5900   5131459.3794   1   6   0.0003   0.0003   0.0003   0.0001   0.0001   0.0002   0.00   16.0
